stop_id,stop_name,stop_desc,stop_lat,stop_lon,zone_id,stop_url
ho chi minh city_stop_4616360490,Tôn Thất Tùng,,10.767676,106.690867,,
ho chi minh city_stop_6315672385,Nguyễn Thị Nghĩa,,10.768802,106.693696,,
ho chi minh city_stop_6956317386,Trường Trung học Phổ thông Ernst Thälmann,,10.769573,106.695697,,
ho chi minh city_stop_9402954182,Trạm trung chuyển Hàm Nghi,,10.770994,106.700518,,
ho chi minh city_stop_7739047808,Đền thờ Ấn Giáo,,10.773505,106.701392,,
ho chi minh city_stop_6128564185,Lê Thánh Tôn,,10.775073,106.700717,,
ho chi minh city_stop_3168095079,Lý Tự Trọng,,10.777076,106.699669,,
ho chi minh city_stop_3168095080,Lê Duẩn,,10.778291,106.698360,,
ho chi minh city_stop_3168095081,Nguyễn Thị Minh Khai,,10.779809,106.696717,,
ho chi minh city_stop_3168095082,Đại học Kiến trúc,,10.781645,106.694714,,
ho chi minh city_stop_3168095083,Điện Biên Phủ,,10.783448,106.692729,,
ho chi minh city_stop_6315679795,Võ Thị Sáu,,10.784854,106.691202,,
ho chi minh city_stop_3162508872,Nhà Thiếu nhi Thành phố,,10.785581,106.689671,,
ho chi minh city_stop_3167018763,Viện Pasteur,,10.785893,106.688326,,
ho chi minh city_stop_9403108739,Trần Quốc Toản,,10.786948,106.687136,,
ho chi minh city_stop_3167018764,Lý Chính Thắng,,10.789229,106.684652,,
ho chi minh city_stop_3167018765,Chùa Vĩnh Nghiêm,,10.790687,106.683081,,
ho chi minh city_stop_6128564186,Ngã tư Trần Huy Liệu,,10.793561,106.679193,,
ho chi minh city_stop_3167021689,Trung tâm Văn hóa Quận Phú Nhuận,,10.795455,106.675999,,
ho chi minh city_stop_3167021690,Cổng Xe lửa,,10.796870,106.673619,,
ho chi minh city_stop_3167021691,Bệnh viện Quận Phú Nhuận,,10.798622,106.670592,,
ho chi minh city_stop_9404173938,Cây xăng Quân khu 7,,10.799665,106.668882,,
ho chi minh city_stop_1774952214,Sân vận động Quân khu 7,,10.800857,106.666760,,
ho chi minh city_stop_12871231499,Sacombank Head Office,,10.787538,106.686504,,
ho chi minh city_stop_9470667890,Nam Kỳ Khởi Nghĩa,,10.770861,106.701506,,
ho chi minh city_stop_9470667891,Chợ Cũ,,10.770836,106.701952,,
ho chi minh city_stop_13619847102,Ngô Văn Năm,,10.779838,106.707644,,
ho chi minh city_stop_3016612589,Bảo tàng Tôn Đức Thắng,,10.777667,106.707025,,
ho chi minh city_stop_3124681592,Bến Bạch Đằng,,10.773370,106.706388,,
ho chi minh city_stop_7520799030,Cục Hải quan Thành phố,,10.770876,106.705518,,
ho chi minh city_stop_9468454790,Chợ Cũ,,10.770991,106.703083,,
ho chi minh city_stop_9468454791,Trường Cao đẳng Kỹ Thuật Cao Thắng,,10.771055,106.701841,,
ho chi minh city_stop_11753277684,Trường Trung học Phổ thông Ernst Thälmann,,10.768786,106.695954,,
ho chi minh city_stop_5423964121,Ký túc xá Trần Hưng Đạo,,10.767432,106.694772,,
ho chi minh city_stop_5423964222,Rạp phim Trần Hưng Đạo,,10.765805,106.693339,,
ho chi minh city_stop_11753277685,Bệnh viện Răng Hàm Mặt,,10.763930,106.691705,,
ho chi minh city_stop_9468454792,Trần Đình Xu,,10.762287,106.690251,,
ho chi minh city_stop_6315671616,Tổng Công ty Samco,,10.759465,106.687781,,
ho chi minh city_stop_6315672801,Chợ Nancy,,10.757458,106.686018,,
ho chi minh city_stop_3124681921,Nguyễn Biểu,,10.755869,106.682828,,
ho chi minh city_stop_3124681597,Trường Cao đẳng Kinh Tế Đối ngoại,,10.755590,106.681803,,
ho chi minh city_stop_3124681595,Đường Trần Bình Trọng,,10.755290,106.680661,,
ho chi minh city_stop_11753277686,Bệnh viện Chấn thương Chỉnh hình,,10.754583,106.678176,,
ho chi minh city_stop_9470342579,Rạp Đồng Tháp,,10.753998,106.675956,,
ho chi minh city_stop_11753277687,Rạp Đống Đa,,10.753565,106.674258,,
ho chi minh city_stop_3160548762,Đồng Khánh,,10.752956,106.671482,,
ho chi minh city_stop_3150110712,Nhà Văn hóa Quận 5,,10.753017,106.668565,,
ho chi minh city_stop_9470342578,Ngô Quyền,,10.752474,106.666176,,
ho chi minh city_stop_3160545659,Đường Tản Đà,,10.752273,106.663777,,
ho chi minh city_stop_9470667880,Triệu Quang Phục,,10.752076,106.660595,,
ho chi minh city_stop_4614188879,Bưu điện Quận 5,,10.751255,106.658934,,
ho chi minh city_stop_9042277025,Hải Thượng Lãn Ông,,10.750940,106.658553,,
ho chi minh city_stop_9042277026,Chợ Kim Biên,,10.751124,106.655049,,
ho chi minh city_stop_9042278313,Chu Văn An,,10.750191,106.652450,,
ho chi minh city_stop_9042278316,Chợ Kim Biên,,10.750686,106.655007,,
ho chi minh city_stop_4614188880,Bưu điện Quận 5,,10.751256,106.659201,,
ho chi minh city_stop_2392398232,Rạp Đại Quang,,10.752413,106.658944,,
ho chi minh city_stop_9470667882,Lương Nhữ Học,,10.752958,106.660401,,
ho chi minh city_stop_3116339930,Triệu Quang Phục,,10.753063,106.661930,,
ho chi minh city_stop_11753277690,Đường Trường Đại học Sư phạm Thể dục Thể thao Thành phố Hồ Chí Minh,,10.753378,106.663658,,
ho chi minh city_stop_3116339932,Đường Siêu thị Điện máy Chợ Lớn,,10.753599,106.664814,,
ho chi minh city_stop_9470667885,Ngô Quyền,,10.754003,106.666871,,
ho chi minh city_stop_3116339937,Chung cư Nguyễn Trãi,,10.754270,106.668171,,
ho chi minh city_stop_3160548850,Bệnh viện Chấn thương Chỉnh Hình,,10.754402,106.678139,,
ho chi minh city_stop_9470667888,Đường Trần Bình Trọng,,10.754922,106.680009,,
ho chi minh city_stop_3160554145,Nguyễn Biểu,,10.756084,106.684356,,
ho chi minh city_stop_3160554147,Chợ Nancy,,10.757051,106.685870,,
ho chi minh city_stop_4884593221,Tổng Công ty Samco,,10.759699,106.688194,,
ho chi minh city_stop_9470667889,Phòng Cảnh sát Phòng cháy Chữa cháy,,10.760673,106.689039,,
ho chi minh city_stop_5417843026,Hồ Hào Hớn,,10.762401,106.690588,,
ho chi minh city_stop_11753277693,Bệnh viện Răng Hàm Mặt,,10.763635,106.691653,,
ho chi minh city_stop_12212047755,Rạp Trần Hưng Đạo,,10.764833,106.692683,,
ho chi minh city_stop_11753277694,Ký túc xã Trần Hưng Đạo,,10.767157,106.694709,,
ho chi minh city_stop_6315351599,Nguyễn Kim,,10.768379,106.695794,,
ho chi minh city_stop_7520799016,Hồ Tùng Mậu,,10.770721,106.704032,,
ho chi minh city_stop_5416310315,Bến Bạch Đằng,,10.774068,106.706644,,
ho chi minh city_stop_11811380965,Bệnh viện Nguyễn Tri Phương,,10.754686,106.670162,,
ho chi minh city_stop_4621858713,Trần Phú,,10.755225,106.672957,,
ho chi minh city_stop_4621858714,Bệnh viện Nguyễn Trãi,,10.755862,106.675111,,
ho chi minh city_stop_6315672832,Giao lộ Hàm Nghi - Tôn Thất Đạm,,10.770778,106.703058,,
ho chi minh city_stop_11793308592,Bảo tàng Tôn Đức Thắng,,10.777228,106.707092,,
ho chi minh city_stop_11775484747,Ba Son,,10.781826,106.707102,,
ho chi minh city_stop_11771724348,TTTM Sài Gòn,,10.784289,106.704322,,
ho chi minh city_stop_11775511384,TTTM Sài Gòn,,10.783821,106.704363,,
ho chi minh city_stop_11775484746,Ba Son,,10.781521,106.706830,,
ho chi minh city_stop_9471827248,Nguyễn Văn Linh,,10.729559,106.708480,,
ho chi minh city_stop_9471827252,Phạm Thái Bường,,10.727325,106.709485,,
ho chi minh city_stop_9471827246,Công viên Mỹ Kim,,10.724363,106.712294,,
ho chi minh city_stop_9471827244,Cửa hàng Chuồn chuồn Đỏ,,10.721935,106.713180,,
ho chi minh city_stop_9471827251,Sen Vàng,,10.723337,106.715565,,
ho chi minh city_stop_9471827243,Đường N,,10.723595,106.716336,,
ho chi minh city_stop_9471827254,Trần Văn Trà,,10.724031,106.721197,,
ho chi minh city_stop_9471827249,Trần Văn Trà,,10.724344,106.721391,,
ho chi minh city_stop_9471827250,Đường N,,10.723653,106.716439,,
ho chi minh city_stop_9471827245,Family Mart,,10.723528,106.715296,,
ho chi minh city_stop_9471827242,Highlands Coffee,,10.722155,106.712876,,
ho chi minh city_stop_9473097477,Trường Quốc tế Nam Sài Gòn,,10.722728,106.710013,,
ho chi minh city_stop_9473097476,Hà Huy Tập,,10.726710,106.708689,,
ho chi minh city_stop_4871042893,Đường Số 6,,10.729925,106.706807,,
ho chi minh city_stop_8985136185,Trường Đại học Công nghệ Đồng Nai,,10.984546,106.868343,,
ho chi minh city_stop_8985136188,Trường Trung học Cơ sở Trường Sa,,10.987060,106.867221,,
ho chi minh city_stop_11309193607,Khu dân cư Phú Gia 1,,10.990015,106.866119,,
ho chi minh city_stop_9005933296,Trường Tiểu học Trảng Dài,,10.991660,106.865517,,
ho chi minh city_stop_8985136192,Nhà bia Liệt sĩ Phường Trảng Dài,,10.992547,106.863853,,
ho chi minh city_stop_8985136193,UBND Phường Trảng Dài,,10.992148,106.861570,,
ho chi minh city_stop_8985136198,Ngã ba Năm Thưởng,,10.991978,106.857824,,
ho chi minh city_stop_8985136201,Trường Mầm non Minh Anh,,10.988594,106.857329,,
ho chi minh city_stop_8985136203,Công ty Nguyễn Phong,,10.986359,106.857180,,
ho chi minh city_stop_11309193606,Công ty TNHH MJ Apparel,,10.983587,106.857770,,
ho chi minh city_stop_8985136205,Công an Phường Trảng Dài,,10.979786,106.855688,,
ho chi minh city_stop_8985136206,Phòng khám Đa khoa Công Minh,,10.977344,106.854645,,
ho chi minh city_stop_8985136207,Trường Mầm non Đom Đóm Trảng Dài,,10.975902,106.854713,,
ho chi minh city_stop_8981753922,Cầu Đồng Khởi,,10.971882,106.852759,,
ho chi minh city_stop_11309193605,Ngã tư Tân Phong,,10.967910,106.853615,,
ho chi minh city_stop_8981753919,Bệnh viện Quân y 7B,,10.966716,106.853028,,
ho chi minh city_stop_11309193604,Chùa Phi Lai,,10.965763,106.849012,,
ho chi minh city_stop_8981753917,Bệnh viện Tâm thần Trung ương 2,,10.964900,106.845351,,
ho chi minh city_stop_8982859902,Công viên Dương Tử Giang,,10.963486,106.843633,,
ho chi minh city_stop_8982859901,Trường Nguyễn Văn Trỗi,,10.960228,106.843120,,
ho chi minh city_stop_8982859899,Siêu thị Điện máy Chợ Lớn,,10.957572,106.841903,,
ho chi minh city_stop_8982859898,Quỹ Đầu tư Phát triển Tỉnh Đồng Nai,,10.957933,106.840352,,
ho chi minh city_stop_8982859897,Phòng khám Đa khoa Hồng Phúc,,10.958365,106.838174,,
ho chi minh city_stop_8982859896,Co.opmart Phạm Văn Thuận,,10.958457,106.834001,,
ho chi minh city_stop_8982859894,Trạm y tế Phường Tân Mai,,10.957383,106.830397,,
ho chi minh city_stop_8979998713,Trường Trung học Phổ thông Ngô Quyền,,10.954954,106.825875,,
ho chi minh city_stop_8981741299,Trường Tiểu học Nguyễn Du,,10.945190,106.818962,,
ho chi minh city_stop_8981741301,Hẻm 156 Đường Cách mạng Tháng Tám,,10.943501,106.820832,,
ho chi minh city_stop_8981741300,Công ty Cổ phần Cấp nước Đồng Nai,,10.941147,106.823019,,
ho chi minh city_stop_8981741303,Trường Trung học Phổ thông Chu Văn An (cũ),,10.938911,106.824535,,
ho chi minh city_stop_8981741278,Trường Mầm non Hiệp Hoà,,10.934202,106.829852,,
ho chi minh city_stop_8981741280,Chợ Hiệp Hòa,,10.930416,106.832788,,
ho chi minh city_stop_8981741282,Khu du lịch Ngọc Hoa Trang,,10.925959,106.835588,,
ho chi minh city_stop_8985136210,Công ty Ajinomoto Việt Nam,,10.910807,106.846614,,
ho chi minh city_stop_8981741284,Trường Tiểu học An Hảo,,10.907771,106.847647,,
ho chi minh city_stop_11869153635,Thư viện Tỉnh Đồng Nai,,10.956518,106.827473,,
ho chi minh city_stop_8981741308,Công viên Biên Hùng,,10.951988,106.822895,,
ho chi minh city_stop_8981741307,Phòng Tư pháp Thành phố Biên Hòa,,10.949639,106.820894,,
ho chi minh city_stop_8981741306,Sacombank 30/4,,10.948952,106.820307,,
ho chi minh city_stop_8981741305,Trường Trung học Cơ sở Nguyễn Bỉnh Khiêm (cũ),,10.947531,106.819028,,
ho chi minh city_stop_8981741296,Ngã tư Cầu Hóa An,,10.952323,106.809268,,
ho chi minh city_stop_8981741294,Ngã ba Hồ Văn Đại,,10.952063,106.810578,,
ho chi minh city_stop_8981741290,Sở Tài chính Đồng Nai,,10.949599,106.813303,,
ho chi minh city_stop_8981741287,Nhà Thiếu nhi Tỉnh Đồng Nai,,10.946499,106.817502,,
ho chi minh city_stop_8979998710,Công viên Biên Hùng,,10.951935,106.823056,,
ho chi minh city_stop_8979998712,Trường Trung học Cơ sở Trần Hưng Đạo,,10.956048,106.827676,,
ho chi minh city_stop_8980118497,Sở Khoa học và Công nghệ Tỉnh Đồng Nai,,10.957815,106.832659,,
ho chi minh city_stop_8980118498,Co.opmart Phạm Văn Thuận,,10.958409,106.834365,,
ho chi minh city_stop_8985418897,Công ty Bảo Việt Nhân Thọ Đồng Nai,,10.961032,106.851032,,
ho chi minh city_stop_8985418899,Ngân hàng Agribank,,10.961748,106.853179,,
ho chi minh city_stop_8981741292,Trường Mầm non Quang Vinh,,10.950959,106.812076,,
ho chi minh city_stop_8979998704,Trường Quốc tế Bắc Mỹ SNA Marianapolis,,10.946927,106.818622,,
ho chi minh city_stop_8980118496,Trung tâm nuôi dạy trẻ em khuyết tật Tỉnh Đồng Nai,,10.957166,106.830046,,
ho chi minh city_stop_8980118499,Văn phòng Công chứng Thống Nhất,,10.958404,106.837060,,
ho chi minh city_stop_8980118500,Công an Phường Tân Mai,,10.957829,106.840109,,
ho chi minh city_stop_8980118501,Siêu thị Điện máy Chợ Lớn,,10.957483,106.841789,,
ho chi minh city_stop_8985418895,Trường Tiểu học Nguyễn An Ninh,,10.959529,106.844669,,
ho chi minh city_stop_8985418906,Phòng khám Đa khoa Phúc An,,10.956789,106.860860,,
ho chi minh city_stop_8985418908,Chi cục Thú y Đồng Nai,,10.956036,106.863076,,
ho chi minh city_stop_8985418910,Cục Hải quan Tỉnh Đồng Nai,,10.955038,106.866032,,
ho chi minh city_stop_8985418912,Bệnh viện Đa khoa Đồng Nai,,10.953393,106.868805,,
ho chi minh city_stop_8985928746,Lotte Mart,,10.948873,106.869912,,
ho chi minh city_stop_8987356866,Cây xăng Suối Linh,,10.941188,106.868191,,
ho chi minh city_stop_8987356873,Trung tâm dạy nghề Vim Hem Pích,,10.933844,106.873385,,
ho chi minh city_stop_8987356877,Vinmart+ 367 Bùi Văn Hòa,,10.930349,106.876198,,
ho chi minh city_stop_8987356879,Cây xăng Quân đội Long Bình,,10.927663,106.878368,,
ho chi minh city_stop_8987356876,Ngã ba Hoàng Tam Kỳ,,10.931884,106.874975,,
ho chi minh city_stop_8987356881,Công ty TNHH một thành viên Nam Thịnh Lộc,,10.925200,106.880329,,
ho chi minh city_stop_8987356883,Trường Mầm non Hoa Phượng,,10.923732,106.881170,,
ho chi minh city_stop_8987356885,Honda Hà Thành,,10.921462,106.882194,,
ho chi minh city_stop_8987356888,Cửa hàng xăng dầu 201,,10.919483,106.883105,,
ho chi minh city_stop_8987356890,Tiệm phở Bắc Hải,,10.915425,106.885047,,
ho chi minh city_stop_8987356892,Khu phố Văn hóa KP7,,10.913586,106.886789,,
ho chi minh city_stop_8987356894,Nhà hàng Quyết Thắng,,10.907438,106.889839,,
ho chi minh city_stop_5755584298,Trường Cao đẳng nghề số 8,,10.902859,106.889783,,
ho chi minh city_stop_8987356900,Cổng 11,,10.895277,106.892098,,
ho chi minh city_stop_8987356904,Chùa Bửu Pháp,,10.887863,106.897754,,
ho chi minh city_stop_8987356906,Chợ Phước Tân,,10.886461,106.899755,,
ho chi minh city_stop_8987356910,Phòng khám Đa khoa Tân Long,,10.876262,106.909116,,
ho chi minh city_stop_8987356908,Đình Phước Tân,,10.883515,106.903702,,
ho chi minh city_stop_8987356916,Trường Cơ bản Phật học,,10.866972,106.921390,,
ho chi minh city_stop_8987385218,Khu công nghiệp Tam Phước,,10.864143,106.923303,,
ho chi minh city_stop_8987385220,Trường Tiểu học Tam Phước 3,,10.856677,106.927095,,
ho chi minh city_stop_8987385224,Ngã ba Thái Lan,,10.852189,106.928567,,
ho chi minh city_stop_8987385226,Trung tâm đăng kiểm xe cơ giới 60-06D,,10.842693,106.929302,,
ho chi minh city_stop_8987507238,Trạm dừng chân Bò Sữa Long Thành,,10.835192,106.934421,,
ho chi minh city_stop_8987507240,Khu công nghiệp Long Thành,,10.829982,106.937160,,
ho chi minh city_stop_8987507242,Khu công nghiệp Long Đức,,10.824497,106.940003,,
ho chi minh city_stop_8987507244,Chợ chiều An Phước,,10.821823,106.941447,,
ho chi minh city_stop_8987507246,Ngã ba Tam An,,10.815722,106.943441,,
ho chi minh city_stop_8987507248,Ngã ba Suối Trầu,,10.812286,106.944457,,
ho chi minh city_stop_8987507255,Điện lực Long Thành,,10.798293,106.944569,,
ho chi minh city_stop_8987507261,Phòng công chứng số 4,,10.789969,106.947079,,
ho chi minh city_stop_8987507263,Bưu điện Long Thành,,10.786951,106.948448,,
ho chi minh city_stop_8987507251,Trường Mầm non Hoa Mai,,10.807780,106.944708,,
ho chi minh city_stop_8987507260,Trung tâm Văn hóa Huyện Long Thành,,10.791934,106.946329,,
ho chi minh city_stop_8989603527,Ngã ba Nhơn Trạch,,10.752477,106.966744,,
ho chi minh city_stop_8989603529,Xăng dầu Hảo Loan,,10.750552,106.966182,,
ho chi minh city_stop_8989603533,Gara ô tô Tuấn Cảnh,,10.742274,106.958535,,
ho chi minh city_stop_8987507266,Chợ cũ Long Thành,,10.784197,106.949903,,
ho chi minh city_stop_8987507267,UBND Thị trấn Long Thành,,10.781160,106.951636,,
ho chi minh city_stop_8987507271,Chợ mới Long Thành,,10.775719,106.954963,,
ho chi minh city_stop_8989603521,Giáo xứ Thái Lạc,,10.768617,106.958292,,
ho chi minh city_stop_8989603523,HĐND Xã Long An,,10.761692,106.960158,,
ho chi minh city_stop_8989603531,Nhà hàng Xê-un,,10.745190,106.961280,,
ho chi minh city_stop_8989603535,Cafe Cát Phượng,,10.737440,106.942852,,
ho chi minh city_stop_8989603538,Công ty Samwoo VN,,10.736568,106.938418,,
ho chi minh city_stop_8989603540,Phòng khám đa khoa Ái Nghĩa,,10.735720,106.934788,,
ho chi minh city_stop_9660014340,Trường Trung học Phổ thông Ngô Quyền,,10.954723,106.825804,,
ho chi minh city_stop_8987507269,Trường Trung học cơ sở Long Thành,,10.779629,106.952596,,
ho chi minh city_stop_8987356912,Bệnh viện Lao phổi,,10.872124,106.912721,,
ho chi minh city_stop_8987356902,Cây xăng Toàn Dung,,10.892076,106.895199,,
ho chi minh city_stop_8987507273,Phật hội Việt Nam - Hưng Lộc Tự,,10.772107,106.956893,,
ho chi minh city_stop_8987385228,Chùa Pháp Hoa Long Thành,,10.838504,106.932398,,
ho chi minh city_stop_8989603525,Chùa Quang Minh,,10.756779,106.962790,,
ho chi minh city_stop_8985418901,Sở tài nguyên Môi trường,,10.961059,106.855278,,
ho chi minh city_stop_8985418904,Đài khí tượng thủy văn,,10.957799,106.857973,,
ho chi minh city_stop_8987356898,Cửa hàng Bách hóa xanh,,10.899701,106.890983,,
ho chi minh city_stop_8981741288,Công viên Thanh Bình,,10.947953,106.815506,,
ho chi minh city_stop_11309193598,Sacombank 30/4,,10.948598,106.820091,,
ho chi minh city_stop_8979998709,Phòng Tư pháp Thành phố Biên Hòa,,10.949884,106.821281,,
ho chi minh city_stop_8987356868,Công viên Long Bình,,10.938569,106.869538,,
ho chi minh city_stop_8987356871,Phòng Cảnh sát Giao thông Long Bình,,10.936327,106.871428,,
ho chi minh city_stop_11873794176,Nhà văn hóa KP7,,10.911663,106.888704,,
ho chi minh city_stop_11870716280,UBND Xã Tam Phước,,10.854282,106.927941,,
ho chi minh city_stop_11870716281,Công ty Tín Nghĩa,,10.734451,106.929443,,
ho chi minh city_stop_11873794178,Công ty Tín Nghĩa,,10.734167,106.929091,,
ho chi minh city_stop_8985136211,Công ty Ajinomoto Việt Nam,,10.911068,106.846870,,
ho chi minh city_stop_8981741283,Khu du lịch Ngọc Hoa Trang,,10.926288,106.835799,,
ho chi minh city_stop_8981741281,Chợ Hiệp Hòa,,10.930253,106.833067,,
ho chi minh city_stop_8981741279,Trường Trung học Phổ thông Nam Hà,,10.933835,106.830467,,
ho chi minh city_stop_8979998706,Trường Trung học Phổ thông Chu Văn An (cũ),,10.938698,106.824872,,
ho chi minh city_stop_8979998707,Công ty Cổ phần Cấp nước Đồng Nai,,10.941318,106.823071,,
ho chi minh city_stop_8981741302,Hẻm 156 Đường Cách mạng Tháng Tám,,10.943425,106.821152,,
ho chi minh city_stop_8980118503,Trường Nguyễn Văn Trỗi,,10.960475,106.843304,,
ho chi minh city_stop_8980118504,Công viên Dương Tử Giang,,10.963562,106.843750,,
ho chi minh city_stop_8980118505,Trường Trung học Phổ thông Bùi Thị Xuân,,10.964853,106.846190,,
ho chi minh city_stop_8980118506,Chùa Phi Lai,,10.965724,106.849854,,
ho chi minh city_stop_8980118511,Bệnh viện Quân y 7B,,10.966347,106.852497,,
ho chi minh city_stop_8980118512,Ngã tư Tân Phong,,10.967592,106.853967,,
ho chi minh city_stop_8980118514,Cầu Đồng Khởi,,10.972153,106.852918,,
ho chi minh city_stop_8985136209,Trường Mầm non Đom Đóm Trảng Dài,,10.975103,106.854581,,
ho chi minh city_stop_8985136204,Công an Phường Trảng Dài,,10.980847,106.855964,,
ho chi minh city_stop_11309193597,Công ty TNHH MJ Apparel,,10.983569,106.857904,,
ho chi minh city_stop_8985136202,Văn phòng Địa ốc Minh Duy,,10.985896,106.857320,,
ho chi minh city_stop_8985136200,Trường Mầm non Minh Anh,,10.988611,106.857461,,
ho chi minh city_stop_8985136199,Ngã ba Năm Thưởng,,10.991852,106.858258,,
ho chi minh city_stop_8985136195,UBND Phường Trảng Dài,,10.992204,106.862758,,
ho chi minh city_stop_8985136190,Trường Tiểu học Trảng Dài,,10.991961,106.865247,,
ho chi minh city_stop_8985136187,Trường Trung học Cơ sở Trường Sa,,10.986410,106.867281,,
ho chi minh city_stop_8977118685,Công viên Lam Sơn,,10.907947,106.847925,,
ho chi minh city_stop_8979998708,Trường Tiểu học Nguyễn Du,,10.944703,106.819638,,
ho chi minh city_stop_9126724470,Điện lực Thống Nhất,,10.967122,106.887554,,
ho chi minh city_stop_8983652230,Nhà sách Đồng Nai,,10.968406,106.889256,,
ho chi minh city_stop_8983652224,Giáo xứ Đại Lộ,,10.972107,106.889944,,
ho chi minh city_stop_8983652222,Giáo xứ Trung Nghĩa,,10.972630,106.886601,,
ho chi minh city_stop_8983652220,Đền thánh Vicente Bắc Hải,,10.972609,106.882931,,
ho chi minh city_stop_8983652217,Trường Mầm non Dân lập Đoàn Kết,,10.972591,106.880970,,
ho chi minh city_stop_8983649016,Giáo xứ Phù Tảo,,10.972249,106.877003,,
ho chi minh city_stop_8983649014,Cầu Săn Máu,,10.971571,106.868829,,
ho chi minh city_stop_8983649012,Bệnh viện Đa khoa Tâm Hồng Phước,,10.970164,106.866800,,
ho chi minh city_stop_8983649008,Công ty cổ phần công trình giao thông Đồng Nai,,10.968565,106.860920,,
ho chi minh city_stop_8983649006,Công ty Điện lực Đồng Nai,,10.967210,106.855260,,
ho chi minh city_stop_8981741316,Di tích Nhà lao Tân Hiệp,,10.964238,106.842767,,
ho chi minh city_stop_8981741314,Chợ Tân Phong,,10.963258,106.838505,,
ho chi minh city_stop_8981741312,Đội Cảnh sát Giao thông Thành phố Biên Hòa,,10.961868,106.834708,,
ho chi minh city_stop_8981741310,Bảo tàng Đồng Nai,,10.958578,106.830820,,
ho chi minh city_stop_8982859890,Công an Thành phố Biên Hòa,,10.956181,106.823630,,
ho chi minh city_stop_8982859889,Ngã tư Phan Đình Phùng,,10.956159,106.818832,,
ho chi minh city_stop_8982859887,Hội thánh Tin lành Việt Nam,,10.954265,106.817937,,
ho chi minh city_stop_8982859885,Nhà may Xuân,,10.952476,106.818132,,
ho chi minh city_stop_8981741285,Công viên Thanh Bình,,10.947822,106.815886,,
ho chi minh city_stop_8981741289,Sở Tài chính Đồng Nai,,10.949666,106.813415,,
ho chi minh city_stop_8981741291,Trường Mầm non Quang Vinh,,10.951143,106.812118,,
ho chi minh city_stop_8981741293,Ngã ba Hồ Văn Đại,,10.952109,106.810964,,
ho chi minh city_stop_8992080817,Vòng xoay Cầu Hóa An,,10.940751,106.803916,,
ho chi minh city_stop_8984629300,Ngã tư Hoàng Minh Chánh,,10.937272,106.804298,,
ho chi minh city_stop_8992071315,Ngân hàng Agribank,,10.939350,106.804014,,
ho chi minh city_stop_8992071313,Uỷ ban Nhân dân Phường Hóa An,,10.935714,106.804522,,
ho chi minh city_stop_8984629295,Công ty Poucheng,,10.932861,106.804944,,
ho chi minh city_stop_8984629298,Chung cư Hóa An,,10.929744,106.805380,,
ho chi minh city_stop_8992071311,Vòng xoay Hóa An,,10.926781,106.805774,,
ho chi minh city_stop_8981741295,Ngã tư Cầu Hóa An,,10.952574,106.808632,,
ho chi minh city_stop_8983649010,Trại tạm giam Công an Tỉnh Đồng Nai,,10.968877,106.863500,,
ho chi minh city_stop_11874238081,Nhà Thiếu nhi Tỉnh Đồng Nai,,10.946571,106.817582,,
ho chi minh city_stop_8989603541,Công ty Samwoo VN,,10.736144,106.938748,,
ho chi minh city_stop_8989603539,Cafe Cát Phượng,,10.736847,106.942351,,
ho chi minh city_stop_8989603536,Ngã tư Hiệp Phước,,10.737436,106.945760,,
ho chi minh city_stop_8989603532,Nhà hàng Xê-un,,10.745025,106.961803,,
ho chi minh city_stop_8989603528,Ngã ba Nhơn Trạch,,10.753044,106.966569,,
ho chi minh city_stop_8989603526,Chùa Quang Minh,,10.756128,106.963561,,
ho chi minh city_stop_8989603524,HĐND Xã Long An,,10.762916,106.960188,,
ho chi minh city_stop_8989603522,Giáo xứ Thái Lạc,,10.769847,106.958282,,
ho chi minh city_stop_8987507274,Phật hội Việt Nam - Hưng Lộc Tự,,10.772592,106.956839,,
ho chi minh city_stop_8987507272,Chợ mới Long Thành,,10.776120,106.954863,,
ho chi minh city_stop_8987507265,Chợ cũ Long Thành,,10.784301,106.950193,,
ho chi minh city_stop_8987507264,Bưu điện Long Thành,,10.787454,106.948510,,
ho chi minh city_stop_8987507259,Trung tâm Văn hóa Huyện Long Thành,,10.791970,106.946526,,
ho chi minh city_stop_8987507262,Kho bạc nhà nước Long Thành,,10.789791,106.947426,,
ho chi minh city_stop_8987507257,Ngã ba Trần Văn Ơn,,10.796767,106.945025,,
ho chi minh city_stop_8987507256,Điện lực Long Thành,,10.799440,106.944584,,
ho chi minh city_stop_8987507247,Ngã ba Tam An,,10.816010,106.943687,,
ho chi minh city_stop_8987507245,Chợ chiều An Phước,,10.820924,106.942227,,
ho chi minh city_stop_8987356897,Tiệm rửa xe Phát Đạt,,10.902904,106.889909,,
ho chi minh city_stop_8987356895,Cửa hàng nệm Vạn Thành,,10.907599,106.890049,,
ho chi minh city_stop_8987356893,2,,10.913566,106.887021,,
ho chi minh city_stop_8987356891,Quán gà Tam Kỳ,,10.915647,106.885087,,
ho chi minh city_stop_8987356889,Đại lý vé máy bay Bảo Sơn,,10.919416,106.883261,,
ho chi minh city_stop_8987356887,Honda Hà Thành,,10.922085,106.882065,,
ho chi minh city_stop_8987356884,Trường Mầm non Hoa Phượng,,10.924651,106.880823,,
ho chi minh city_stop_8987356880,Cây xăng Quân đội Long Bình,,10.927613,106.878600,,
ho chi minh city_stop_8987356878,Vinmart+ 367 Bùi Văn Hòa,,10.930681,106.876108,,
ho chi minh city_stop_8987356875,Ngã ba Hoàng Tam Kỳ,,10.931832,106.875190,,
ho chi minh city_stop_8987356874,Trung tâm dạy nghề Vim Hem Pích,,10.934122,106.873342,,
ho chi minh city_stop_8987356872,Phòng Cảnh sát Giao thông Long Bình,,10.936213,106.871680,,
ho chi minh city_stop_8987356870,Công viên Long Bình,,10.938310,106.869968,,
ho chi minh city_stop_8987356903,Cây xăng Toàn Dung,,10.892670,106.895246,,
ho chi minh city_stop_8987356905,Chùa Bửu Pháp,,10.887741,106.898356,,
ho chi minh city_stop_8987356909,Đình Phước Tân,,10.883511,106.904181,,
ho chi minh city_stop_8987356911,Phòng khám đa khoa Tân Long,,10.875772,106.909686,,
ho chi minh city_stop_8987356914,Ngã ba Nam Cao,,10.873895,106.910764,,
ho chi minh city_stop_8987356913,Bệnh viện Lao phổi,,10.872295,106.913165,,
ho chi minh city_stop_8987385217,Trường Cơ bản Phật học,,10.866719,106.922051,,
ho chi minh city_stop_8987385219,Khu công nghiệp Tam Phước,,10.864114,106.923712,,
ho chi minh city_stop_8987385221,Trường Tiểu học Tam Phước 3,,10.857919,106.926997,,
ho chi minh city_stop_8987385223,UBND Xã Tam Phước,,10.854786,106.928101,,
ho chi minh city_stop_8987385225,Ngã ba Thái Lan,,10.852187,106.928915,,
ho chi minh city_stop_8987385227,Trung tâm đăng kiểm xe cơ giới 60-06D,,10.842759,106.929624,,
ho chi minh city_stop_8987385229,Chùa Cồ Đàm,,10.839322,106.932199,,
ho chi minh city_stop_8987507239,Trạm dừng chân Bò sữa Long Thành,,10.835039,106.934877,,
ho chi minh city_stop_8987507241,Khu công nghiệp Long Thành,,10.830430,106.937337,,
ho chi minh city_stop_8985439883,Ngã tư Amata,,10.952297,106.870332,,
ho chi minh city_stop_8985418913,Bệnh viện Đa khoa Đồng Nai,,10.954203,106.868267,,
ho chi minh city_stop_8985418911,Cục Hải quan Tỉnh Đồng Nai,,10.955157,106.866381,,
ho chi minh city_stop_8985418909,Chi cục Thú y Đồng Nai,,10.956154,106.863397,,
ho chi minh city_stop_8985418907,Phòng khám Đa khoa Phúc An,,10.956929,106.861177,,
ho chi minh city_stop_8985418905,Đài khí tượng thủy văn,,10.957816,106.858705,,
ho chi minh city_stop_8985418902,Sở Tài nguyên Môi trường,,10.960473,106.855796,,
ho chi minh city_stop_8985418900,Ngân hàng Agribank,,10.961820,106.853081,,
ho chi minh city_stop_8985418898,Công ty Bảo Việt Nhân Thọ Đồng Nai,,10.961084,106.850912,,
ho chi minh city_stop_8985418896,Trường Tiểu học Nguyễn An Ninh,,10.959607,106.844519,,
ho chi minh city_stop_11870716284,Công ty Tín Nghĩa,,10.734038,106.929497,,
ho chi minh city_stop_11870716285,Công ty Formosa,,10.736631,106.940915,,
ho chi minh city_stop_8989603534,Xe cẩu Hưng Hoàng,,10.741903,106.958934,,
ho chi minh city_stop_8987507243,Khu công nghiệp Long Đức,,10.826565,106.939334,,
ho chi minh city_stop_11873794179,Cửa hàng Minh Long,,10.899114,106.891184,,
ho chi minh city_stop_11873794180,Trung tâm Hành chính công Tỉnh Đồng Nai,,10.960548,106.848415,,
ho chi minh city_stop_8987507270,Trường Trung học cơ sở Long Thành,,10.779819,106.952630,,
ho chi minh city_stop_8984629297,Chung cư Hóa An,,10.932051,106.805321,,
ho chi minh city_stop_8984629296,Công ty Poucheng,,10.933628,106.805087,,
ho chi minh city_stop_8984629299,Ngã tư Hoàng Minh Chánh,,10.937477,106.804475,,
ho chi minh city_stop_8992080818,Vòng xoay Cầu Hóa An,,10.940717,106.804114,,
ho chi minh city_stop_8982859884,Nhà may Xuân,,10.952084,106.818232,,
ho chi minh city_stop_8982859886,Hội thánh Tin lành Việt Nam,,10.953724,106.818116,,
ho chi minh city_stop_8982859892,Công viên Kỷ niệm,,10.956128,106.827044,,
ho chi minh city_stop_8981741309,Hội Văn hóa Nghệ thuật Đồng Nai,,10.958227,106.830785,,
ho chi minh city_stop_8981741313,Chợ Tân Phong,,10.962986,106.838150,,
ho chi minh city_stop_8981741315,Di tích Nhà lao Tân Hiệp,,10.963921,106.842440,,
ho chi minh city_stop_8983649005,Điện lực Đồng Nai,,10.967170,106.855705,,
ho chi minh city_stop_8983649007,Công ty cổ phần công trình giao thông Đồng Nai,,10.968350,106.860711,,
ho chi minh city_stop_8983649009,Trại tạm giam Công an Tỉnh Đồng Nai,,10.968777,106.863866,,
ho chi minh city_stop_8983649011,Bệnh viện Đa khoa Tâm Hồng Phước,,10.970290,106.867215,,
ho chi minh city_stop_8983649013,Cầu Săn Máu,,10.971593,106.869279,,
ho chi minh city_stop_8983649015,Công an Phường Hố Na,,10.972178,106.878124,,
ho chi minh city_stop_8983652218,Trường Mầm non Dân lập Đoàn Kết,,10.972419,106.881002,,
ho chi minh city_stop_8983652219,Đền thánh Vicente Bác Hải,,10.972435,106.883198,,
ho chi minh city_stop_8983652221,Nhà thơ Nam Hải,,10.972440,106.886487,,
ho chi minh city_stop_8983652223,Giáo xứ Kẻ Sặt,,10.971962,106.889820,,
ho chi minh city_stop_8983652228,Công viên 30/4,,10.970964,106.891297,,
ho chi minh city_stop_8983652229,Chợ Tân Biên,,10.968838,106.889459,,
ho chi minh city_stop_8982859882,Sở Y tế Đồng Nai,,10.949290,106.817624,,
ho chi minh city_stop_9123506662,Khu công nghiệp Biên Hòa 2,,10.909292,106.852375,,
ho chi minh city_stop_9201167690,Khu công nghiệp Biên Hòa Cổng 2,,10.919424,106.862667,,
ho chi minh city_stop_9123506663,Ngã ba Vũng Hồng Phô,,10.929703,106.868338,,
ho chi minh city_stop_9123506664,Bến xe Đồng Nai,,10.935403,106.868426,,
ho chi minh city_stop_8987356867,Cây xăng Suối Linh,,10.941731,106.868524,,
ho chi minh city_stop_9123506665,Công ty Xây dựng Dân dụng số 1,,10.963845,106.854749,,
ho chi minh city_stop_9123506666,Go! Tân Hiệp,,10.966263,106.854245,,
ho chi minh city_stop_9123506668,Bệnh viện Y dược Cổ truyền Đồng Nai,,10.975415,106.850734,,
ho chi minh city_stop_9123506669,Bưu điện Trảng Dài,,10.977741,106.848731,,
ho chi minh city_stop_9123506671,Trạm thu phí Đồng Khởi,,10.981422,106.847600,,
ho chi minh city_stop_9123506682,Chợ Bà Thức,,10.986277,106.846529,,
ho chi minh city_stop_9123506683,Cây xăng Đức Hưng,,10.993574,106.846695,,
ho chi minh city_stop_9123506697,Công ty Thép Bắc Hồng,,10.997836,106.848122,,
ho chi minh city_stop_9123506698,Bệnh viện Da liễu,,11.000515,106.850015,,
ho chi minh city_stop_9123506699,Khu công nghiệp Thạnh Phú,,11.003414,106.852822,,
ho chi minh city_stop_9123506700,Công ty Bê tông Hùng Vương,,11.008333,106.855274,,
ho chi minh city_stop_9123506701,Cổng sau Công ty ChanShing,,11.010140,106.855060,,
ho chi minh city_stop_9123506702,Ngã 3 Thạnh Phú,,11.012869,106.854818,,
ho chi minh city_stop_9123506667,Bệnh viện Lao Đồng Nai,,10.973474,106.852347,,
ho chi minh city_stop_11874238102,Bưu cục Trảng Dài,,10.979364,106.847898,,
ho chi minh city_stop_10287576612,Ngã tư Vũng Tàu,,10.904079,106.849296,,
ho chi minh city_stop_10287576613,Công ty Cảng Đồng Nai,,10.901512,106.852006,,
ho chi minh city_stop_10287576614,Nội thất 6 Duy,,10.898770,106.856406,,
ho chi minh city_stop_10287576615,Bệnh viện Đại học Y dược,,10.895579,106.861750,,
ho chi minh city_stop_10287576616,Chi hội Tin lành Bến Gỗ,,10.894189,106.866138,,
ho chi minh city_stop_10287576617,Bệnh viện Điều dưỡng,,10.894080,106.872341,,
ho chi minh city_stop_10287576618,Cây xăng Thịnh Ninh Phát,,10.894856,106.876439,,
ho chi minh city_stop_10287576619,Cao đẳng Lê Quí Đôn,,10.897075,106.882192,,
ho chi minh city_stop_10308605515,Công ty Vedan,,10.662874,107.034859,,
ho chi minh city_stop_11878284498,Ngã ba Giải Phóng,,10.751114,106.968295,,
ho chi minh city_stop_11878284499,Khu dân cư An Thuận,,10.747524,106.971456,,
ho chi minh city_stop_11878284500,Trạm dừng Hoa Mai,,10.744405,106.973972,,
ho chi minh city_stop_11878284501,Chùa Long Phước Thọ,,10.738489,106.978759,,
ho chi minh city_stop_11878284502,Trường Tiểu học Long Phước,,10.732702,106.984926,,
ho chi minh city_stop_11878284503,Chùa Quốc Ân Khải Tường,,10.731746,106.987451,,
ho chi minh city_stop_11878284504,Đền thờ Nguyễn Đức Ứng,,10.726291,106.994831,,
ho chi minh city_stop_11878284505,UBND Xã Long Phước,,10.712205,107.004471,,
ho chi minh city_stop_11878284506,Ngã ba 67,,10.709569,107.006239,,
ho chi minh city_stop_11878284507,Trường Trung học cơ sở Long Phước,,10.703046,107.010680,,
ho chi minh city_stop_11878284508,Trường Cao đẳng nghề Lilama,,10.701292,107.011835,,
ho chi minh city_stop_10280248696,Giáo xứ Hiền Đức,,10.692860,107.017552,,
ho chi minh city_stop_11878284510,Chùa Thường Chiếu,,10.682766,107.024487,,
ho chi minh city_stop_11878284511,UBND Xã Phước Thái,,10.679662,107.026662,,
ho chi minh city_stop_9123888732,Ngã 3 Thạnh Phú,,11.012918,106.854676,,
ho chi minh city_stop_9123888733,Cổng sau công ty ChanShing,,11.011743,106.854682,,
ho chi minh city_stop_9123888736,Bệnh viện Da liễu,,11.000633,106.849959,,
ho chi minh city_stop_9123888735,Khu công nghiệp Thạnh Phú,,11.003205,106.852503,,
ho chi minh city_stop_9123888737,Công ty Thép Bắc Hồng,,10.997948,106.847990,,
ho chi minh city_stop_9123888738,Cây xăng Đức Hưng,,10.993505,106.846566,,
ho chi minh city_stop_9123888739,Chợ Bà Thức,,10.986297,106.846415,,
ho chi minh city_stop_9123888740,Trạm thu phí Đồng Khởi,,10.982261,106.847167,,
ho chi minh city_stop_9123888741,Bưu điện Trảng Dài,,10.977535,106.848595,,
ho chi minh city_stop_9123888742,Bệnh viện Y dược Cổ truyền Đồng Nai,,10.975122,106.850713,,
ho chi minh city_stop_9123888743,Bệnh viện Lao Đồng Nai,,10.973316,106.852197,,
ho chi minh city_stop_9123888744,Công ty Xây dựng Dân dụng số 1,,10.963654,106.854544,,
ho chi minh city_stop_9123888745,Bến xe Đồng Nai,,10.935360,106.868131,,
ho chi minh city_stop_9123888746,Ngã ba Vũng Hồng Phô,,10.930133,106.868018,,
ho chi minh city_stop_9123888747,Khu công nghiệp Biên Hòa Cổng 2,,10.919553,106.862350,,
ho chi minh city_stop_9123888748,Khu Công nghiệp Biên Hòa 2,,10.908445,106.851128,,
ho chi minh city_stop_9123888734,Công ty Bê tông Hùng Vương,,11.008057,106.855118,,
ho chi minh city_stop_11340754519,Ngã 3 Bắc Sơn - Long Thành,,10.958370,106.954806,,
ho chi minh city_stop_9272251069,Giáo xứ Bùi Chu,,10.960455,106.950118,,
ho chi minh city_stop_9272251068,Ngã 3 Trị An,,10.961142,106.946988,,
ho chi minh city_stop_9272251067,Giáo xứ Thanh Hóa,,10.961966,106.944193,,
ho chi minh city_stop_9272251066,Chợ Thanh Hóa,,10.963446,106.939142,,
ho chi minh city_stop_9272251063,Giáo xứ Phanxicô Xaviê,,10.966211,106.918935,,
ho chi minh city_stop_9272251062,Công an Phường Tân Hòa,,10.967365,106.911752,,
ho chi minh city_stop_9272251059,UBND Phường Tân Hòa,,10.968212,106.905461,,
ho chi minh city_stop_9272251057,Bệnh viện Đa khoa Thống Nhất,,10.968107,106.900215,,
ho chi minh city_stop_9175820583,Trường Trung học phổ thông Nguyễn Trãi,,10.968771,106.898516,,
ho chi minh city_stop_9175820581,Khu phố 8 Tân Biên,,10.969840,106.895639,,
ho chi minh city_stop_9272251055,Nha khoa Thái Bình,,10.963971,106.883330,,
ho chi minh city_stop_9272251053,Bệnh viện Nhi đồng Đồng Nai,,10.955411,106.875062,,
ho chi minh city_stop_11340859030,Trạm bơm Hóa An,,10.942936,106.801734,,
ho chi minh city_stop_11342817556,Trường Trung học cơ sở Hóa An,,10.945184,106.798688,,
ho chi minh city_stop_11340859029,Cầu Cái Bông Tân Hạnh,,10.950527,106.787520,,
ho chi minh city_stop_11342817560,Hẻm 1561 Bùi Hữu Nghĩa,,10.951789,106.786170,,
ho chi minh city_stop_11342817557,Trạm y tế Phường Tân Hạnh,,10.954200,106.784557,,
ho chi minh city_stop_11342817561,UBND Phường Tân Hạnh,,10.957951,106.782640,,
ho chi minh city_stop_11342817559,Cầu Ông Tiếp,,10.961853,106.780379,,
ho chi minh city_stop_4214878558,Công viên Phú Cường,,10.978280,106.656488,,
ho chi minh city_stop_4214878557,Nhà sách Bình Minh,,10.976515,106.657671,,
ho chi minh city_stop_4214878561,Chợ Cây Dừa,,10.990515,106.651106,,
ho chi minh city_stop_11870716279,Trường Tiểu học Võ Thị Sáu,,10.970430,106.891953,,
ho chi minh city_stop_11342817558,Cửa hàng vật liệu Tiến Chi,,10.946840,106.796295,,
ho chi minh city_stop_13428152655,Miếu ông cù - đối diện,,10.978044,106.739229,,
ho chi minh city_stop_13428152656,Mẫu giáo Nai Vàng,,10.980035,106.732142,,
ho chi minh city_stop_13428152657,Trường mẫu giáo gần ngã tư Bình Chuẩn,,10.983863,106.723509,,
ho chi minh city_stop_13428152658,Công ty thép Việt Bình Dương,,10.985781,106.714739,,
ho chi minh city_stop_13428152659,Cách ngã 3 Bình Qưới 100m,,10.986903,106.709346,,
ho chi minh city_stop_13428152660,(Đối diện) Văn phòng khu phố Bình Quới,,10.987785,106.705050,,
ho chi minh city_stop_13428152661,Số nhà 615 Phú Lợi,,10.988101,106.691976,,
ho chi minh city_stop_13428152662,Bảo hiểm xã hội,,10.983222,106.676932,,
ho chi minh city_stop_12337076693,Sân vận động Gò Đậu - Bình Dương,,10.970117,106.670443,,
ho chi minh city_stop_12337076694,Bến xe khách tỉnh Bình Dương(Trung tâm gdtx bình dương),,10.966840,106.669091,,
ho chi minh city_stop_13428152663,Số nhà 1073,,10.966390,106.665785,,
ho chi minh city_stop_13428152664,Cửa hàng vi tính Chíp,,10.967368,106.664281,,
ho chi minh city_stop_4214878556,Ngã ba Lò Chén,,10.968759,106.660542,,
ho chi minh city_stop_13428152665,Mẹ bầu ( Siêu thị tóc Sài Gòn),,10.972178,106.659829,,
ho chi minh city_stop_12345191071,Chùa Bà Thiên Hậu,,10.980337,106.654272,,
ho chi minh city_stop_4214878563,Thư viện tỉnh Bình Dương,,10.993759,106.656086,,
ho chi minh city_stop_4214878566,Bệnh viện Đa khoa tỉnh Bình Dương,,10.996209,106.656668,,
ho chi minh city_stop_4214878565,Bệnh viện Đa khoa tỉnh Bình Dương,,10.996637,106.656373,,
ho chi minh city_stop_4214878564,Thư viện tỉnh Bình Dương,,10.994136,106.655750,,
ho chi minh city_stop_12345191083,Ngã Ba Đại Lộ Bình Dương - Nguyễn Đức Thuận,,10.994805,106.652978,,
ho chi minh city_stop_13428152631,Đại lý xe tay ga minh hoàng phương (hãng xe YAMAHA),,10.997532,106.648646,,
ho chi minh city_stop_13428152632,Trường THPT Nguyễn Đình Chiểu,,10.999884,106.647074,,
ho chi minh city_stop_5072413326,Cty TNHH kim thành phát,,11.026679,106.646710,,
ho chi minh city_stop_13428152666,Nhà thuốc duy lâm,,11.029497,106.643652,,
ho chi minh city_stop_9126724460,TTC Plaza,,10.946393,106.824664,,
ho chi minh city_stop_9126724461,Trường Trung học cơ sở Thống Nhất,,10.946935,106.827667,,
ho chi minh city_stop_9126724462,Bệnh viện Hoàn Mỹ,,10.947177,106.829046,,
ho chi minh city_stop_9126724463,Khu ngân hàng,,10.947618,106.831052,,
ho chi minh city_stop_9126724464,Trung tâm Phục vụ Hành chính công tỉnh Đồng Nai,,10.948247,106.833815,,
ho chi minh city_stop_9126724465,Chùa Phước Huệ,,10.951041,106.840947,,
ho chi minh city_stop_9175820584,Trường Trung học phổ thông Nguyễn Trãi,,10.968711,106.898153,,
ho chi minh city_stop_9175820585,Bệnh viện Đa khoa Thống Nhất,,10.967726,106.900685,,
ho chi minh city_stop_9175820586,UBND Phường Tân Hòa,,10.967947,106.904934,,
ho chi minh city_stop_9234949935,Siêu thị Nội thất Yến Bình Minh,,10.967973,106.907034,,
ho chi minh city_stop_9234949934,Xăng dầu Tân Hòa,,10.967567,106.909249,,
ho chi minh city_stop_9234949933,Công an Phường Tân Hòa,,10.967156,106.911947,,
ho chi minh city_stop_9234949932,Giáo xứ Phanxicô Xaviê,,10.965951,106.919269,,
ho chi minh city_stop_9234949931,Đền thánh Giusê,,10.965324,106.923044,,
ho chi minh city_stop_9234949930,Chùa Phước Minh,,10.965413,106.927432,,
ho chi minh city_stop_9234949929,Chợ Thanh Hóa,,10.963259,106.939067,,
ho chi minh city_stop_9234949928,Giáo xứ Thanh Hóa,,10.961906,106.943606,,
ho chi minh city_stop_9234949927,Ngã ba Trị An,,10.961158,106.946207,,
ho chi minh city_stop_9234949924,Khu du lịch Thác Giáng Điền,,10.947124,106.981018,,
ho chi minh city_stop_9234949923,Giáo xứ Quảng Biên,,10.948420,106.987267,,
ho chi minh city_stop_9234949922,Sân bóng đá Huyên Trảng Bom,,10.951549,106.994413,,
ho chi minh city_stop_9272251074,Công an Huyện Trảng Bom,,10.952288,106.997569,,
ho chi minh city_stop_9234949920,Ngã tư Trảng Bom,,10.952847,107.004406,,
ho chi minh city_stop_9234949919,UBND Huyện Trảng Bom,,10.952315,107.006833,,
ho chi minh city_stop_9314042755,UBND Huyện Trảng Bom,,10.952312,107.010421,,
ho chi minh city_stop_9314042750,Công ty Cổ phần GOWP,,10.955450,107.029934,,
ho chi minh city_stop_9314042754,Khu công nghiệp Bàu Xéo,,10.954059,107.024286,,
ho chi minh city_stop_9317625158,Công ty Woosung,,10.953408,107.039788,,
ho chi minh city_stop_9317625157,Nhà hàng Song Thạch,,10.950048,107.045943,,
ho chi minh city_stop_9317625156,UBND Xã Tây Hòa,,10.947831,107.050064,,
ho chi minh city_stop_9234949925,Giáo xứ Tân Bắc,,10.954427,106.968464,,
ho chi minh city_stop_8997660565,Phòng Quản lý Đô thị Biên Hòa,,10.949551,106.822221,,
ho chi minh city_stop_11869153638,Trạm y tế Xã Bắc Sơn,,10.958680,106.955545,,
ho chi minh city_stop_11869153639,Giáo xứ Tân Thành,,10.957340,106.959277,,
ho chi minh city_stop_11869153640,Xăng dầu Petrolimex,,10.954478,107.022099,,
ho chi minh city_stop_9317625155,UBND Xã Trung Hòa,,10.944449,107.062046,,
ho chi minh city_stop_9317625154,Vietcombank,,10.943925,107.064933,,
ho chi minh city_stop_9317625153,Trường Trung học cơ sở Phan Chu Trinh,,10.943218,107.068909,,
ho chi minh city_stop_11869153641,Bệnh viện Đa khoa Long Bình,,10.942217,107.074417,,
ho chi minh city_stop_9317625152,Trung tâm Nghiên cứu Thực nghiệm Hưng Lộc,,10.941859,107.076282,,
ho chi minh city_stop_9317625151,Trường Nguyễn Thượng Hiền,,10.940975,107.081388,,
ho chi minh city_stop_11869153642,Nhà tộc Nguyễn Đắc,,10.940515,107.083861,,
ho chi minh city_stop_9317625150,Chùa Vạn Thọ,,10.940050,107.089539,,
ho chi minh city_stop_11869153643,Showroom Thống Nhất,,10.939471,107.098030,,
ho chi minh city_stop_9317625149,UBND Xã Hưng Lộc,,10.938352,107.101648,,
ho chi minh city_stop_9317625148,Nhà thờ Hưng Lộc,,10.936924,107.120867,,
ho chi minh city_stop_9317625147,Ngã ba Dầu Giây,,10.942302,107.138204,,
ho chi minh city_stop_11869153644,Chợ Dầu Giây,,10.944535,107.140348,,
ho chi minh city_stop_11869153645,Trung tâm Huyện Thống Nhất,,10.951659,107.140405,,
ho chi minh city_stop_11869153646,Bầu Hàm 2,,10.964379,107.141073,,
ho chi minh city_stop_11869153647,Giáo xứ Hưng Bình,,10.974612,107.147262,,
ho chi minh city_stop_11869153648,Ấp trứng Đông Tây,,10.979868,107.150288,,
ho chi minh city_stop_11869153649,Trường Trung học cơ sở Lê Lợi,,10.981375,107.151149,,
ho chi minh city_stop_11869153650,Trường Tiểu học Nguyễn Huệ,,10.991104,107.153677,,
ho chi minh city_stop_11869153651,Đài thánh Phanxicô,,10.996500,107.157476,,
ho chi minh city_stop_11869153652,Ấp Nguyễn Huệ - Ninh Phát,,11.000081,107.162501,,
ho chi minh city_stop_11869153653,Trạm dừng chân Tứ Hải,,11.006551,107.168044,,
ho chi minh city_stop_11869153654,Trạm dừng chân Thống Nhất,,11.007203,107.168777,,
ho chi minh city_stop_11869153655,Xăng dầu Quang Trung,,11.010720,107.172750,,
ho chi minh city_stop_11869153656,Trường Tiểu học Thăng Long,,11.011669,107.173854,,
ho chi minh city_stop_11869153657,Chợ Võ Dõng,,11.018944,107.176373,,
ho chi minh city_stop_11869153658,Điện máy Quốc Thắng,,11.028111,107.175009,,
ho chi minh city_stop_11869153659,UBND Xã Gia Kiệm,,11.030473,107.174657,,
ho chi minh city_stop_11869153660,Chợ Phúc Nhạc,,11.036482,107.173755,,
ho chi minh city_stop_11869153661,Giáo xứ Gia Yên,,11.037967,107.173492,,
ho chi minh city_stop_11869153662,Chợ Bạch Lâm,,11.044100,107.172584,,
ho chi minh city_stop_11869153663,Nhà thờ Thánh Tâm,,11.053280,107.170973,,
ho chi minh city_stop_11869153664,UBND Xã Gia Tân 1,,11.057207,107.170140,,
ho chi minh city_stop_11869153665,Giáo xứ Dốc Mơ,,11.059459,107.169721,,
ho chi minh city_stop_11869153666,UBND Xã Gia Tân 2,,11.060973,107.169401,,
ho chi minh city_stop_11869153667,Nhà trẻ Phong Lan,,11.067495,107.167922,,
ho chi minh city_stop_11869153668,Ngã ba Dốc Mơ,,11.079987,107.169881,,
ho chi minh city_stop_11869158969,Giáo xứ Phú Dòng,,11.084174,107.171902,,
ho chi minh city_stop_11869158970,Chùa Trúc Lâm,,11.089396,107.178883,,
ho chi minh city_stop_11869158971,Giáo xứ Túc Trưng,,11.088898,107.199631,,
ho chi minh city_stop_11869158972,Trường tiểu học ĐInh Tiên Hoàng,,11.089299,107.206156,,
ho chi minh city_stop_11869158975,UBND Xã Phú Túc,,11.091493,107.217384,,
ho chi minh city_stop_11878988725,Bến xe Phú Túc,,11.092432,107.219474,,
ho chi minh city_stop_11878988726,Trạm dừng chân Ngọc Hiện,,11.112757,107.229011,,
ho chi minh city_stop_11878988727,Cây xăng Ngọc Hiện,,11.115034,107.228600,,
ho chi minh city_stop_11878988728,Cây xăng Phú Quý,,11.136572,107.223752,,
ho chi minh city_stop_11878988729,Trường Tiểu học Lê Quý Đôn,,11.156756,107.240706,,
ho chi minh city_stop_11878988730,Trường Trung học cơ sở Trần Hưng Đạo,,11.157848,107.243717,,
ho chi minh city_stop_11878988731,Cầu La Ngà,,11.159235,107.265694,,
ho chi minh city_stop_11878988732,Giáo xứ La Ngà,,11.160139,107.280578,,
ho chi minh city_stop_11878988733,Cây xăng 105,,11.163158,107.288291,,
ho chi minh city_stop_11878988734,Ban bảo vệ rừng phòng hộ Tân Phú,,11.164044,107.291138,,
ho chi minh city_stop_11878988735,Cây số 106 ấp 3,,11.166382,107.297066,,
ho chi minh city_stop_11878988736,Công ty DoNaFoods Định Quán,,11.174520,107.325632,,
ho chi minh city_stop_11878988737,Trường Trung học cơ sở Nguyễn Thị Minh Khai,,11.184087,107.344491,,
ho chi minh city_stop_11878988738,Trung tâm văn hóa Định Quán,,11.189522,107.347831,,
ho chi minh city_stop_11878988739,Điện lực Định Quán,,11.192854,107.349907,,
ho chi minh city_stop_11878988740,UBND Thị trấn Định Quán,,11.197104,107.352992,,
ho chi minh city_stop_11878988741,Trung tâm dạy nghề,,11.198147,107.354187,,
ho chi minh city_stop_11878988742,UBND Huyện Định Quán,,11.202202,107.358261,,
ho chi minh city_stop_11878988743,Chợ Phú Hoa,,11.205698,107.361333,,
ho chi minh city_stop_11878988744,Chợ cũ Phú Vinh,,11.209542,107.364711,,
ho chi minh city_stop_11878988745,Trường Trung học cơ sở Lý Thường Kiệt,,11.213791,107.368456,,
ho chi minh city_stop_11878988746,Gara Sĩ Nguyên,,11.222299,107.375674,,
ho chi minh city_stop_11878988747,Xăng dầu Nam Trung Phong,,11.229610,107.381648,,
ho chi minh city_stop_11878988748,Bến xe Tân Phú,,11.264610,107.426717,,
ho chi minh city_stop_11878988749,Chùa Bửu Long,,11.266203,107.429384,,
ho chi minh city_stop_11878988750,Chi cục thuế,,11.267232,107.431357,,
ho chi minh city_stop_11878988751,Trường Tiểu học Nguyện Huệ CS2,,11.269442,107.435690,,
ho chi minh city_stop_11878988752,Bưu điện Tân Phú,,11.270260,107.437246,,
ho chi minh city_stop_11878988753,Bệnh viện Tân Phú,,11.271692,107.440107,,
ho chi minh city_stop_11878988754,Dịch vụ nội thất,,11.277112,107.461146,,
ho chi minh city_stop_11878988755,UBND Phú Xuân,,11.278006,107.470044,,
ho chi minh city_stop_11878988756,UBND Xã Phú Thanh,,11.278954,107.474215,,
ho chi minh city_stop_11878988757,Nghĩa trang Phương Lâm,,11.281971,107.482924,,
ho chi minh city_stop_11878988758,Chợ Phương Lâm,,11.285030,107.488135,,
ho chi minh city_stop_11878988759,Siêu thị Điện máy Xanh,,11.287231,107.491018,,
ho chi minh city_stop_11878988760,UBND Xã Phú Lâm,,11.288412,107.492472,,
ho chi minh city_stop_11878988761,Giáo xứ Bình Lâm,,11.290089,107.494755,,
ho chi minh city_stop_11878988762,UBND Xã Phú Bình,,11.293561,107.499321,,
ho chi minh city_stop_11878988763,Cứu hộ Quang Tú,,11.300946,107.503649,,
ho chi minh city_stop_11878988764,UBND Xã Phú Trung,,11.303501,107.504864,,
ho chi minh city_stop_11878988765,Giáo xứ Kim Lâm,,11.310658,107.510979,,
ho chi minh city_stop_11878988766,Xăng dầu số 5,,11.312852,107.513181,,
ho chi minh city_stop_11878988767,Giáo xứ Phú Lâm,,11.325656,107.519045,,
ho chi minh city_stop_11878988768,UBND Xã Phú Sơn,,11.330135,107.520570,,
ho chi minh city_stop_11878996069,Chùa Linh Phú,,11.332368,107.521503,,
ho chi minh city_stop_11753277695,Trạm trung chuyển Hàm Nghi,,10.770938,106.700515,,
ho chi minh city_stop_3339195232,Công trường Mê Linh,,10.776072,106.705700,,
ho chi minh city_stop_3166179576,Nhà hát Thành phố,,10.778040,106.703507,,
ho chi minh city_stop_3166179577,Bệnh viện Nhi đồng 2,,10.779856,106.701527,,
ho chi minh city_stop_11753277698,Bưu điện Thành phố,,10.780605,106.700674,,
ho chi minh city_stop_11753277699,Sở Công Thương,,10.784299,106.696477,,
ho chi minh city_stop_6315690598,Công viên Lê Văn Tám,,10.787402,106.692616,,
ho chi minh city_stop_3167010081,Nhà thờ Tân Định,,10.789220,106.690330,,
ho chi minh city_stop_11753277701,Chợ Tân Định,,10.790451,106.688785,,
ho chi minh city_stop_11753277702,Cầu Kiệu,,10.793612,106.684779,,
ho chi minh city_stop_11753277703,Chợ Phú Nhuận,,10.795025,106.683031,,
ho chi minh city_stop_3167052567,Trường Cao đẳng Kinh tế Đối ngoại,,10.797897,106.680889,,
ho chi minh city_stop_3167052566,Ngã tư Phú Nhuận,,10.799754,106.680097,,
ho chi minh city_stop_3167052565,Nhà Truyền thông,,10.802247,106.679175,,
ho chi minh city_stop_3167052564,Ngã ba Hồ Văn Huê,,10.805101,106.678722,,
ho chi minh city_stop_3167052563,Co.op Mart Nguyễn Kiệm,,10.807080,106.678496,,
ho chi minh city_stop_3167052562,Chùa Vạn Hạnh,,10.810340,106.678538,,
ho chi minh city_stop_3167052561,Trường Cao đẳng Hải quan,,10.812485,106.678693,,
ho chi minh city_stop_3167039164,Cầu vượt Nguyễn Thái Sơn - Nguyễn Kiệm,,10.816240,106.680433,,
ho chi minh city_stop_3167044461,Ngã ba Phạm Ngũ Lão,,10.819700,106.683112,,
ho chi minh city_stop_11753277712,Cầu vượt Ngã sáu Gò Vấp,,10.824552,106.681220,,
ho chi minh city_stop_11753277713,Cầu vượt Ngã sáu Gò Vấp,,10.829166,106.678656,,
ho chi minh city_stop_11753277714,Ngã tư Phan Văn Trị,,10.832444,106.676713,,
ho chi minh city_stop_3168055834,Cư xá Lam Sơn,,10.836107,106.675595,,
ho chi minh city_stop_3168055835,Đài Liệt sĩ,,10.839275,106.675842,,
ho chi minh city_stop_11753277716,Ngã tư An Nhơn,,10.842180,106.676748,,
ho chi minh city_stop_3168057762,Bến Đò,,10.846799,106.678421,,
ho chi minh city_stop_3168057764,Cầu An Lộc,,10.849138,106.678763,,
ho chi minh city_stop_11753277718,Nhà hàng Bến Xưa,,10.852622,106.679196,,
ho chi minh city_stop_3168057768,Ngã tư Ga,,10.857329,106.679825,,
ho chi minh city_stop_11753277720,Đình thần Giao Khẩu,,10.865232,106.680386,,
ho chi minh city_stop_11753277721,Cây xăng Tài Lộc,,10.868312,106.678222,,
ho chi minh city_stop_11753277722,Vườn kiểng Quang Dũng,,10.871306,106.676947,,
ho chi minh city_stop_11753277723,Gara Thanh Hậu,,10.875358,106.676929,,
ho chi minh city_stop_11753277724,Chợ Thạnh Xuân,,10.878494,106.678196,,
ho chi minh city_stop_11753277725,Trường Cao đẳng Điện lực,,10.880889,106.679214,,
ho chi minh city_stop_11753277726,Trường Mầm non Hoa Đỗ Quyên,,10.884590,106.681310,,
ho chi minh city_stop_11753277727,Cây xăng Thanh Bình,,10.886330,106.683142,,
ho chi minh city_stop_11753277728,Cầu Ông Dung,,10.888795,106.685178,,
ho chi minh city_stop_11753277729,Cầu Phú Long,,10.892139,106.687017,,
ho chi minh city_stop_11753277730,Chùa Báo Ấn,,10.894916,106.688626,,
ho chi minh city_stop_11753277731,Chợ Đường,,10.897678,106.689086,,
ho chi minh city_stop_11753277734,Chợ Đường,,10.897513,106.689044,,
ho chi minh city_stop_11753277735,Chùa Báo Ấn,,10.894896,106.688515,,
ho chi minh city_stop_11753277736,Cầu Phú Long,,10.892538,106.687203,,
ho chi minh city_stop_11753277737,Cầu Ông Dung,,10.888945,106.685131,,
ho chi minh city_stop_11753277738,Cây xăng Thanh Bình,,10.886274,106.682866,,
ho chi minh city_stop_11753277739,Trường Mầm non Hoa Đỗ Quyên,,10.884041,106.680837,,
ho chi minh city_stop_11753277740,Trường Cao đẳng Điện lực,,10.881085,106.679219,,
ho chi minh city_stop_11753277741,Chợ Thạnh Xuân,,10.878942,106.678277,,
ho chi minh city_stop_11753277742,Gara Thanh Hậu,,10.875052,106.676775,,
ho chi minh city_stop_11753277743,Vườn kiểng Quang Dũng,,10.871955,106.676833,,
ho chi minh city_stop_11753277744,Cây xăng Tài Lộc,,10.868062,106.678314,,
ho chi minh city_stop_11753277745,Đình thần Giao Khẩu,,10.864920,106.680368,,
ho chi minh city_stop_3168057769,Ngã tư Ga,,10.857938,106.679691,,
ho chi minh city_stop_11753277748,Nhà hàng Bến Xưa,,10.853470,106.679140,,
ho chi minh city_stop_11753277749,Cầu An Lộc,,10.848790,106.678545,,
ho chi minh city_stop_3168057763,Bến Đò,,10.847000,106.678321,,
ho chi minh city_stop_11753277751,Bưu điện An Nhơn,,10.843972,106.677236,,
ho chi minh city_stop_10964744893,Ngã tư An Nhơn,,10.841587,106.676404,,
ho chi minh city_stop_11753277753,Đài Liệt sĩ,,10.839503,106.675739,,
ho chi minh city_stop_11753277754,Trường Vinhempic,,10.836933,106.675458,,
ho chi minh city_stop_11753277755,Cư xá Lam Sơn,,10.834973,106.675586,,
ho chi minh city_stop_11753277756,Ngã tư Phan Văn Trị,,10.831675,106.676921,,
ho chi minh city_stop_3168055832,Cầu vượt Ngã sáu Gò Vấp,,10.828495,106.678860,,
ho chi minh city_stop_3167044467,Cầu vượt Ngã sáu Gò Vấp,,10.823711,106.678986,,
ho chi minh city_stop_11753277758,Bệnh viện Quân y 175,,10.820022,106.678751,,
ho chi minh city_stop_11753277759,Chợ Tân Sơn Nhất,,10.817436,106.678676,,
ho chi minh city_stop_11753277760,Đầu Công viên Gia Định,,10.813340,106.677592,,
ho chi minh city_stop_3167038259,Cuối Công viên Gia Định,,10.810106,106.674894,,
ho chi minh city_stop_3167034801,Đầu Đường Đào Duy Anh,,10.807988,106.674094,,
ho chi minh city_stop_3167034802,Cuối Đường Đào Duy Anh,,10.805926,106.677220,,
ho chi minh city_stop_3167034803,Ngã ba Đào Duy Anh,,10.804871,106.677772,,
ho chi minh city_stop_11753277765,Tháp nước,,10.802397,106.676389,,
ho chi minh city_stop_3167034805,Trung tâm Hội nghị Tiệc cưới White Palace,,10.799992,106.675023,,
ho chi minh city_stop_1271240171,Ngã tư Phú Nhuận,,10.799117,106.679154,,
ho chi minh city_stop_11753277768,Trường Cao đẳng Kinh tế Đối ngoại,,10.798424,106.680600,,
ho chi minh city_stop_11753290069,Chợ Phú Nhuận,,10.795224,106.682640,,
ho chi minh city_stop_11753290070,Cầu Kiệu,,10.793115,106.685280,,
ho chi minh city_stop_3167010082,Trần Quang Khải,,10.790991,106.687958,,
ho chi minh city_stop_11753290072,Chợ Tân Định,,10.789041,106.690456,,
ho chi minh city_stop_3167010080,Công viên Lê Văn Tám,,10.787193,106.692745,,
ho chi minh city_stop_11753290074,Trần Cao Vân,,10.784061,106.696637,,
ho chi minh city_stop_11753290075,Lê Duẩn,,10.781980,106.699028,,
ho chi minh city_stop_11753290076,Bệnh viện Nhi đồng 2,,10.779339,106.701896,,
ho chi minh city_stop_11753290077,Nhà hát Thành phố,,10.777890,106.703526,,
ho chi minh city_stop_11753290078,Công trường Mê Linh,,10.775988,106.705605,,
ho chi minh city_stop_9402954190,Trạm trung chuyển Hàm Nghi,,10.771092,106.699919,,
ho chi minh city_stop_6789351748,Khách sạn New World,,10.770997,106.695971,,
ho chi minh city_stop_3166133532,Nguyễn Thị Nghĩa,,10.769949,106.693416,,
ho chi minh city_stop_3334343861,Tôn Thất Tùng,,10.768731,106.690377,,
ho chi minh city_stop_13722477841,Ngã tư Ga,,10.857469,106.679695,,
ho chi minh city_stop_9402954176,Trạm trung chuyển Hàm Nghi,,10.770926,106.700857,,
ho chi minh city_stop_1171564036,Vòng xoay Lăng Cha Cả,,10.801673,106.662574,,
ho chi minh city_stop_1127291109,Maximark Cộng Hòa,,10.801026,106.659102,,
ho chi minh city_stop_4793262624,Nhà hát Quân đội,,10.801217,106.656793,,
ho chi minh city_stop_1171550045,Công ty Lô Hội,,10.801730,106.651136,,
ho chi minh city_stop_1120776025,Ngã tư Hoàng Hoa Thám,,10.802074,106.646984,,
ho chi minh city_stop_1204093614,Ngã ba Bình Giã,,10.802254,106.644414,,
ho chi minh city_stop_1120760987,ETown,,10.802537,106.640955,,
ho chi minh city_stop_3168079237,Thượng Uyển,,10.806182,106.636301,,
ho chi minh city_stop_3152711998,Mũi tàu Cộng Hòa,,10.808191,106.634636,,
ho chi minh city_stop_3152712000,Ngã ba Chế Lan Viên,,10.812167,106.633449,,
ho chi minh city_stop_3152712004,Uỷ ban Nhân dân Phường 15,,10.818368,106.631562,,
ho chi minh city_stop_3152712006,Khu công nghiệp Tân Bình,,10.822372,106.630318,,
ho chi minh city_stop_3153973652,Cầu Tham Lương - Siêu thị Thiên Hòa,,10.826873,106.625911,,
ho chi minh city_stop_11811380952,Chùa Vĩnh Phước,,10.828610,106.624590,,
ho chi minh city_stop_3153973655,Chùa Lạc Quang,,10.834623,106.620731,,
ho chi minh city_stop_11753290093,Biti's,,10.838210,106.618397,,
ho chi minh city_stop_9393345389,Bến xe An Sương,,10.846069,106.613390,,
ho chi minh city_stop_11754611869,Bến xe An Sương,,10.845254,106.613345,,
ho chi minh city_stop_3153973658,Biti's,,10.838872,106.617382,,
ho chi minh city_stop_3153973656,Chùa Lạc Quang,,10.834515,106.620211,,
ho chi minh city_stop_1271240159,Chùa Vĩnh Phước,,10.831983,106.621851,,
ho chi minh city_stop_2091954745,Cầu Tham Lương - Siêu thị Thiên Hòa,,10.826253,106.625787,,
ho chi minh city_stop_1271240445,Dệt Thành Công,,10.822045,106.629927,,
ho chi minh city_stop_1271240125,Khu công nghiệp Tân Bình,,10.819746,106.630665,,
ho chi minh city_stop_3152712005,Ngã ba Chế Lan Viên,,10.814475,106.632275,,
ho chi minh city_stop_3152711999,Đài Liệt sĩ,,10.808673,106.634067,,
ho chi minh city_stop_3168079238,Thượng Uyển,,10.806115,106.636048,,
ho chi minh city_stop_1271240415,Ngã tư Tân Kỳ Tân Quý,,10.803528,106.637904,,
ho chi minh city_stop_1120762115,ETown,,10.802379,106.640218,,
ho chi minh city_stop_1271240089,Ngã ba Bình Giã,,10.802048,106.644273,,
ho chi minh city_stop_1271240204,Công ty Lô Hội,,10.801535,106.650403,,
ho chi minh city_stop_1171591060,Pico Plaza,,10.801306,106.653577,,
ho chi minh city_stop_11754611881,Ngã ba Út Tịch,,10.801015,106.656615,,
ho chi minh city_stop_1271240380,Maximark Cộng Hòa,,10.800799,106.658768,,
ho chi minh city_stop_11754611882,Công viên Hoàng Văn Thụ,,10.800472,106.663555,,
ho chi minh city_stop_3372672461,Bảo tàng Miền Đông,,10.800235,106.666344,,
ho chi minh city_stop_1226533639,Cây xăng Quân khu 7,,10.799585,106.668564,,
ho chi minh city_stop_1226533636,Bệnh viện Quận Phú Nhuận,,10.798353,106.670695,,
ho chi minh city_stop_1226533637,Cổng Xe lửa,,10.796602,106.673686,,
ho chi minh city_stop_1226533643,Trung tâm Văn hóa Quận Phú Nhuận,,10.795203,106.676016,,
ho chi minh city_stop_1226533642,Ngã tư Trần Huy Liệu,,10.793291,106.679233,,
ho chi minh city_stop_1226533641,Chùa Vĩnh Nghiêm,,10.790416,106.683064,,
ho chi minh city_stop_1226533640,Trần Quốc Toản,,10.786870,106.686874,,
ho chi minh city_stop_1226533638,Viện Pasteur,,10.785399,106.688499,,
ho chi minh city_stop_3168120093,Điện Biên Phủ,,10.783203,106.690948,,
ho chi minh city_stop_3168120094,Co.opmart Nguyễn Đình Chiểu,,10.781237,106.693114,,
ho chi minh city_stop_10262053478,Trường Trung học Phổ thông Lê Quý Đôn,,10.779869,106.694576,,
ho chi minh city_stop_11754611890,Tòa án Nhân dân Thành phố,,10.775993,106.698782,,
ho chi minh city_stop_3168120097,Chùa Ông,,10.774011,106.699798,,
ho chi minh city_stop_11754611892,Trường Cao đẳng Kỹ thuật Cao Thắng,,10.771523,106.700882,,
ho chi minh city_stop_9402954188,Trạm trung chuyển Hàm Nghi,,10.771157,106.699420,,
ho chi minh city_stop_11755184302,Tháp Mười,,10.750306,106.653096,,
ho chi minh city_stop_11761010953,Tạ Uyên,,10.754587,106.653860,,
ho chi minh city_stop_8995784515,Khách sạn Hoàng Hậu,,10.757010,106.655125,,
ho chi minh city_stop_9013343797,Chợ Thiếc,,10.757491,106.657439,,
ho chi minh city_stop_8995806217,Bệnh viện Chợ Rẫy,,10.758052,106.660229,,
ho chi minh city_stop_9006208114,Lý Thường Kiệt,,10.758456,106.662015,,
ho chi minh city_stop_8995806219,Chung cư 155 Nguyễn Chí Thanh,,10.759270,106.665968,,
ho chi minh city_stop_9006208112,Trường Kinh tế Công nghệ,,10.759700,106.667995,,
ho chi minh city_stop_8995806220,Trường Khiếm thị Nguyễn Đình Chiểu,,10.760620,106.669547,,
ho chi minh city_stop_8995806221,Hòa Hảo,,10.762936,106.671159,,
ho chi minh city_stop_8995806222,Chợ Lê Hồng Phong,,10.764707,106.675371,,
ho chi minh city_stop_9052922920,Lê Hồng Phong,,10.761243,106.676655,,
ho chi minh city_stop_8995806225,Phạm Viết Chánh,,10.766186,106.682541,,
ho chi minh city_stop_8995806226,Bệnh viện Từ Dũ,,10.768712,106.684986,,
ho chi minh city_stop_8995806227,Tôn Thất Tùng,,10.771840,106.687928,,
ho chi minh city_stop_8995806228,Sở Y tế Thành phố,,10.774129,106.690006,,
ho chi minh city_stop_8995806230,Nhà Văn hóa Lao động,,10.777033,106.692785,,
ho chi minh city_stop_8995806231,Pasteur,,10.781006,106.696399,,
ho chi minh city_stop_8995806236,Mạc Đỉnh Chi,,10.784121,106.699487,,
ho chi minh city_stop_8995419780,Đinh Tiên Hoàng,,10.786211,106.701181,,
ho chi minh city_stop_8995806239,Thảo Cầm Viên,,10.789606,106.704590,,
ho chi minh city_stop_8995806240,Cầu Thị Nghè,,10.790700,106.705633,,
ho chi minh city_stop_8995806241,Nhà thờ Thị Nghè,,10.793489,106.708200,,
ho chi minh city_stop_8995806242,Trung tâm Dưỡng lão,,10.796568,106.710553,,
ho chi minh city_stop_8995806243,Trường Trung học Phổ thông Gia Định,,10.798934,106.711181,,
ho chi minh city_stop_8995806246,Ngã ba Hàng Xanh,,10.803245,106.711531,,
ho chi minh city_stop_8995806250,Đài Liệt sĩ,,10.808734,106.711925,,
ho chi minh city_stop_11754611894,Cổng ra - Bến xe Miền Đông 1,,10.813795,106.712812,,
ho chi minh city_stop_8995806255,Trường Tiểu học Bình Triệu,,10.828928,106.714337,,
ho chi minh city_stop_8995806256,Trạm xăng dầu - 206 Quốc lộ 13,,10.832687,106.714138,,
ho chi minh city_stop_8995806257,Cầu Ông Dầu,,10.836074,106.713991,,
ho chi minh city_stop_8995806258,Đường Số 3 - Quốc lộ 13,,10.838763,106.715272,,
ho chi minh city_stop_8995806259,Đường Số 4 - Quốc lộ 13,,10.841058,106.717147,,
ho chi minh city_stop_11754611895,Cân Nhơn Hòa,,10.843146,106.718314,,
ho chi minh city_stop_8995806261,Ngã ba Hiệp Bình,,10.848897,106.718694,,
ho chi minh city_stop_8995806262,Ngã ba Đường Hiệp Bình,,10.852923,106.721246,,
ho chi minh city_stop_9243986571,Trạm y tế Phường Hiệp Bình Phước,,10.855705,106.722489,,
ho chi minh city_stop_8995806264,Uỷ ban Nhân dân Phường Hiệp Bình Phước,,10.858710,106.723642,,
ho chi minh city_stop_11754611896,Hồ bơi - 784 Quốc lộ 13,,10.861058,106.724516,,
ho chi minh city_stop_8995806266,Ngã tư Bình Phước,,10.863854,106.724782,,
ho chi minh city_stop_9050097831,Ngã ba Mũi tàu Đường Gò Dưa,,10.866858,106.727382,,
ho chi minh city_stop_9050097832,Chợ Đầu mối Nông sản Thủ Đức,,10.868246,106.730074,,
ho chi minh city_stop_9050097833,Chợ Tam Bình,,10.870834,106.735329,,
ho chi minh city_stop_9050097834,Hồ bơi - 376 Quốc lộ 1,,10.871738,106.739602,,
ho chi minh city_stop_9050097835,Chợ Tam Hải,,10.872947,106.744198,,
ho chi minh city_stop_9050097836,Cầu vượt Sóng Thần,,10.873816,106.746937,,
ho chi minh city_stop_9050097837,Bến xe Lam Hồng,,10.875675,106.755550,,
ho chi minh city_stop_9050097838,Giày da Thái Bình,,10.875308,106.757432,,
ho chi minh city_stop_9050097839,Cầu vượt Linh Xuân,,10.873933,106.762532,,
ho chi minh city_stop_8995806275,Cầu vượt Linh Xuân,,10.874370,106.765668,,
ho chi minh city_stop_8995806276,Chợ Linh Xuân,,10.877414,106.766595,,
ho chi minh city_stop_8995806277,Thánh thất Cao Đài Linh Xuân,,10.880146,106.768111,,
ho chi minh city_stop_8995806278,Đường số 8 - 202-204 Quốc lộ 1K,,10.881783,106.769448,,
ho chi minh city_stop_8995806279,Chùa Từ Quang,,10.885414,106.772548,,
ho chi minh city_stop_8995806280,Big C Green Square,,10.887253,106.774895,,
ho chi minh city_stop_12592904945,Linh Xuân,,10.874451,106.760979,,
ho chi minh city_stop_8995060469,Vòng xoay Hóa An,,10.925226,106.805605,,
ho chi minh city_stop_8995060470,Cầu Hang,,10.924135,106.804885,,
ho chi minh city_stop_8995060471,Big C Green Square,,10.887333,106.774522,,
ho chi minh city_stop_8995060472,Chùa Từ Quang,,10.885447,106.772241,,
ho chi minh city_stop_8995060473,Đường số 8,,10.882080,106.769417,,
ho chi minh city_stop_8995060474,Thánh thất Cao Đài Linh Xuân,,10.879999,106.767656,,
ho chi minh city_stop_8995060475,Chợ Linh Xuân,,10.877615,106.766428,,
ho chi minh city_stop_8995060476,Cầu vượt Linh Xuân,,10.874192,106.765266,,
ho chi minh city_stop_9049910392,Cầu vượt Linh Xuân,,10.874442,106.762093,,
ho chi minh city_stop_9049910393,Giày Thái Bình - Bình Đường,,10.875458,106.758777,,
ho chi minh city_stop_9049910394,Giày Thái Bình,,10.875738,106.757261,,
ho chi minh city_stop_9049910395,Bến xe Lam Hồng,,10.876063,106.755583,,
ho chi minh city_stop_9049910396,Cầu vượt Sóng Thần,,10.874077,106.746499,,
ho chi minh city_stop_9049910397,Chợ Tam Hải,,10.873337,106.744241,,
ho chi minh city_stop_9049910398,Hồ bơi,,10.872160,106.739752,,
ho chi minh city_stop_9049910399,Chợ Tam Bình,,10.870871,106.734539,,
ho chi minh city_stop_9049910400,Chợ Đầu mối Nông sản Thủ Đức,,10.868160,106.729062,,
ho chi minh city_stop_8995301239,Ngã tư Bình Phước,,10.863684,106.724551,,
ho chi minh city_stop_11754611899,Hồ bơi Mèo Mun,,10.861301,106.724395,,
ho chi minh city_stop_8995301241,Uỷ ban Nhân dân Phường Hiệp Bình Phước,,10.859664,106.723728,,
ho chi minh city_stop_8995301242,Trạm y tế Hiệp Bình Phước,,10.855963,106.722329,,
ho chi minh city_stop_8995301243,Ngã ba Đường Hiệp Bình,,10.852631,106.720756,,
ho chi minh city_stop_8995301244,Ngã ba Hiệp Bình,,10.848746,106.718379,,
ho chi minh city_stop_8995301245,Cân Nhơn Hòa,,10.844552,106.718091,,
ho chi minh city_stop_8995301246,Đường số 4 - Quốc lộ 13,,10.841115,106.716874,,
ho chi minh city_stop_8995301247,Đường Số 3 - Quốc lộ 13,,10.838756,106.714918,,
ho chi minh city_stop_8995301248,Cầu Ông Dầu,,10.835619,106.713815,,
ho chi minh city_stop_8995301257,Trạm xăng dầu - 173-175 Quốc lộ 13,,10.832940,106.713910,,
ho chi minh city_stop_8995301258,Uỷ ban Nhân dân Phường Hiệp Bình Chánh,,10.830029,106.714046,,
ho chi minh city_stop_8995301261,Cổng vào Bến xe Miền Đông,,10.816586,106.711173,,
ho chi minh city_stop_8995301262,Ngã tư Nguyễn Xí,,10.812550,106.709167,,
ho chi minh city_stop_8995301264,Ngã tư Chu Văn An,,10.809723,106.709075,,
ho chi minh city_stop_8995301266,Cầu Đinh Bộ Lĩnh,,10.806874,106.709341,,
ho chi minh city_stop_8995301267,Trạm xăng dầu Đinh Bộ Lĩnh,,10.804432,106.709386,,
ho chi minh city_stop_8995301271,Chợ Hàng Xanh,,10.802782,106.710548,,
ho chi minh city_stop_9206593010,Trường Trung học Phổ thông Gia Định,,10.799746,106.711073,,
ho chi minh city_stop_8995301276,Trường Tiểu học Hồng Hà,,10.797338,106.710620,,
ho chi minh city_stop_9052897241,Ngã ba Nguyễn Cửu Vân,,10.795008,106.709413,,
ho chi minh city_stop_8995301280,Nhà thờ Thị Nghè,,10.793705,106.708137,,
ho chi minh city_stop_8995301281,Thảo Cầm Viên,,10.790593,106.705258,,
ho chi minh city_stop_8995301286,Đài Truyền hình Thành phố,,10.787227,106.702106,,
ho chi minh city_stop_8995806238,Nhà thờ Mạc Ti Nho,,10.786163,106.701134,,
ho chi minh city_stop_8995419783,Phùng Khắc Khoan,,10.783971,106.698681,,
ho chi minh city_stop_8995419784,Hồ Con Rùa,,10.783219,106.696396,,
ho chi minh city_stop_8995419786,Sân Phan Đình Phùng,,10.781238,106.694542,,
ho chi minh city_stop_8995419789,Bảo tàng Chứng tích Chiến tranh,,10.779091,106.692554,,
ho chi minh city_stop_8995419790,Trần Quốc Thảo,,10.777928,106.691408,,
ho chi minh city_stop_8995419792,Đại học Mở Thành phố,,10.776506,106.690092,,
ho chi minh city_stop_11754611900,Nguyễn Thị Minh Khai,,10.775088,106.690267,,
ho chi minh city_stop_8995419799,Cách mạng Tháng Tám,,10.773431,106.689060,,
ho chi minh city_stop_8995419800,Tôn Thất Tùng,,10.770853,106.686704,,
ho chi minh city_stop_8995419804,Bệnh viện Từ Dũ,,10.768905,106.684838,,
ho chi minh city_stop_11754611901,Trung ương Hội Chữ thập Đỏ Thành phố,,10.767677,106.683645,,
ho chi minh city_stop_8995419807,Nhà sách Minh Khai,,10.766220,106.682297,,
ho chi minh city_stop_8995419808,Công viên Âu Lạc,,10.765019,106.680725,,
ho chi minh city_stop_8995419810,Ngã tư Trần Bình Trọng,,10.763834,106.678868,,
ho chi minh city_stop_8995419812,Ngã tư Lê Hồng Phong,,10.762557,106.676916,,
ho chi minh city_stop_11845929854,Ngã tư Trần Nhân Tông,,10.761989,106.676013,,
ho chi minh city_stop_11782827580,Trường Cao đẳng Sư phạm Trung ương Thành phố,,10.760314,106.670519,,
ho chi minh city_stop_8995435218,Nguyễn Tiểu La,,10.759822,106.668219,,
ho chi minh city_stop_8995435220,Ngã tư Ngô Quyền,,10.759255,106.665240,,
ho chi minh city_stop_9006208113,Nhà máy Bia Sài Gòn,,10.759129,106.664515,,
ho chi minh city_stop_8995435222,Bệnh viện Răng Hàm Mặt,,10.758329,106.660802,,
ho chi minh city_stop_8995435256,Chợ Thiếc,,10.757653,106.657348,,
ho chi minh city_stop_8995435226,Tạ Uyên,,10.757170,106.655100,,
ho chi minh city_stop_11761069844,Tạ Uyên,,10.755242,106.653709,,
ho chi minh city_stop_4615972584,Bến xe Chợ Lớn,,10.753349,106.652316,,
ho chi minh city_stop_3160545656,Thuần Kiều Plaza,,10.754102,106.656731,,
ho chi minh city_stop_4615972579,Bệnh viện Chợ Rẫy,,10.754514,106.659088,,
ho chi minh city_stop_6315672406,Đại học Y dược,,10.755264,106.662943,,
ho chi minh city_stop_9667135118,Bệnh viện Đại học Y dược,,10.755638,106.664679,,
ho chi minh city_stop_4621858726,Bệnh viện Nguyễn Tri Phương,,10.756727,106.670461,,
ho chi minh city_stop_3151254798,Chợ An Đông,,10.757036,106.672167,,
ho chi minh city_stop_3151254797,Huỳnh Mẫn Đạt,,10.758406,106.676562,,
ho chi minh city_stop_3116315714,Chợ Bầu Sen,,10.759135,106.678347,,
ho chi minh city_stop_1765166514,Đại học Sài Gòn,,10.760741,106.682404,,
ho chi minh city_stop_3150775230,Đại học Khoa học Tự nhiên,,10.762251,106.683038,,
ho chi minh city_stop_11755160657,Trường Trung học Phổ thông Chuyên Lê Hồng Phong,,10.764463,106.682163,,
ho chi minh city_stop_9585048355,Đại học HUTECH,,10.800842,106.714258,,
ho chi minh city_stop_11363404641,Khu du lịch Văn Thánh,,10.799564,106.717402,,
ho chi minh city_stop_11363404642,Cầu Sài Gòn,,10.798418,106.719334,,
ho chi minh city_stop_11755160658,Cầu Đen,,10.799870,106.733935,,
ho chi minh city_stop_11755160659,Thảo Điền,,10.800816,106.738601,,
ho chi minh city_stop_11755160660,Metro Quận 2,,10.801499,106.742413,,
ho chi minh city_stop_11755160661,Cát Lái,,10.802563,106.748013,,
ho chi minh city_stop_11755160662,Xi măng Hà Tiên - Trạm thu phí,,10.819178,106.758325,,
ho chi minh city_stop_11755160663,Ngã tư Tây Hòa (RMK),,10.825951,106.760909,,
ho chi minh city_stop_11755160664,Trạm Xây dựng - 354A Xa lộ Hà Nội,,10.830167,106.763191,,
ho chi minh city_stop_11755160665,Khu Quản lý Giao thông Đô thị Số 2,,10.833053,106.764804,,
ho chi minh city_stop_11755160666,Tu viện Quảng Đức,,10.838805,106.766721,,
ho chi minh city_stop_3116282967,Công ty Sanofi Aventis,,10.841601,106.764217,,
ho chi minh city_stop_3230436392,Công ty May Sài Gòn,,10.843933,106.762462,,
ho chi minh city_stop_3230436383,Trường Mầm non Vành Khuyên,,10.847895,106.760031,,
ho chi minh city_stop_3116282962,Làng Thiếu niên Thủ Đức,,10.849930,106.758773,,
ho chi minh city_stop_2984717727,Ngã ba Chương Dương,,10.850449,106.760836,,
ho chi minh city_stop_2984717726,Trường Cao đẳng Xây dựng,,10.850656,106.764465,,
ho chi minh city_stop_2984717721,Siêu thị Nguyễn Kim,,10.849658,106.769109,,
ho chi minh city_stop_2984717719,Trường Đại học Sư phạm Kỹ thuật,,10.849591,106.771770,,
ho chi minh city_stop_11755184272,Công an Thành phố Thủ Đức,,10.849787,106.775032,,
ho chi minh city_stop_11755184273,HUTECH - Khu Công nghệ Cao,,10.856082,106.785463,,
ho chi minh city_stop_2984625915,Khu Công nghệ Cao Quận 9,,10.858325,106.788826,,
ho chi minh city_stop_11755184275,Đại học Nông Lâm,,10.866965,106.791092,,
ho chi minh city_stop_12767882499,Trạm biến áp Bình Thái,,10.837110,106.766257,,
ho chi minh city_stop_11755184278,Đại học Nông Lâm,,10.866834,106.790324,,
ho chi minh city_stop_11755184279,Khu Công nghệ cao Quận 9,,10.859996,106.790814,,
ho chi minh city_stop_11755184280,Ga Metro Khu Công Nghệ Cao,,10.858702,106.788660,,
ho chi minh city_stop_3148967606,Công ty Coca-Cola,,10.856858,106.785524,,
ho chi minh city_stop_2984717715,Trường Đại học Sư phạm Kỹ thuật,,10.849884,106.772422,,
ho chi minh city_stop_2984717720,Siêu thị Nguyễn Kim,,10.849795,106.768810,,
ho chi minh city_stop_11755528624,Nhà Thiếu nhi Thủ Đức,,10.850506,106.766852,,
ho chi minh city_stop_3116282957,Trường Cao đẳng Xây dựng,,10.850790,106.764113,,
ho chi minh city_stop_2984717730,Ngã ba Chương Dương,,10.850608,106.760165,,
ho chi minh city_stop_11755184283,Làng Thiếu niên Thủ Đức,,10.849743,106.758699,,
ho chi minh city_stop_11755184284,Trường Trung học Phổ thông Thủ Đức,,10.848203,106.759624,,
ho chi minh city_stop_3537461545,Công ty May Sài Gòn,,10.844153,106.762165,,
ho chi minh city_stop_3230436394,Công ty Sanofi Aventis,,10.841368,106.764339,,
ho chi minh city_stop_12212047737,Tu viện Quảng Đức,,10.839297,106.766369,,
ho chi minh city_stop_11337172379,Ngã tư Bình Thái,,10.834911,106.765311,,
ho chi minh city_stop_11755184285,Công ty Truyền tải Điện 4,,10.831199,106.763235,,
ho chi minh city_stop_11337172374,Ngã tư Tây Hòa (RMK),,10.825452,106.759998,,
ho chi minh city_stop_11337172378,Xi măng Hà Tiên,,10.820372,106.758061,,
ho chi minh city_stop_11704307870,Cát Lái,,10.802974,106.747917,,
ho chi minh city_stop_11755184286,Metro Quận 2,,10.802160,106.743379,,
ho chi minh city_stop_11755184287,Thảo Điền,,10.801288,106.738752,,
ho chi minh city_stop_2673074380,Cầu Đen,,10.800454,106.734236,,
ho chi minh city_stop_11755184289,Cầu Sài Gòn,,10.798939,106.719624,,
ho chi minh city_stop_11625828069,Khu du lịch Văn Thánh,,10.800262,106.717218,,
ho chi minh city_stop_11755184290,Đại học HUTECH,,10.801249,106.714810,,
ho chi minh city_stop_11755184291,Trạm xăng dầu Điện Biên Phủ,,10.801670,106.712891,,
ho chi minh city_stop_11755184292,Trường Trung học Phổ thông Chuyên Lê Hồng Phong,,10.764572,106.681887,,
ho chi minh city_stop_11755184293,Đại học Khoa học Tự nhiên,,10.763349,106.682363,,
ho chi minh city_stop_1765166512,Đại học Sư phạm,,10.760934,106.682597,,
ho chi minh city_stop_11755184295,Chợ Bầu Sen,,10.759460,106.678777,,
ho chi minh city_stop_11755184296,Huỳnh Mẫn Đạt,,10.758043,106.675308,,
ho chi minh city_stop_11755184297,Chợ An Đông,,10.757522,106.673536,,
ho chi minh city_stop_4621858725,Bệnh viện Nguyễn Tri Phương,,10.756979,106.670629,,
ho chi minh city_stop_3116315718,Công viên Văn Lang,,10.757083,106.669640,,
ho chi minh city_stop_3185778722,Công viên Văn Lang,,10.757237,106.668562,,
ho chi minh city_stop_9667135117,Bệnh viện Phạm Ngọc Thạch,,10.755970,106.664836,,
ho chi minh city_stop_11755184300,Hùng Vương Plaza,,10.755216,106.660961,,
ho chi minh city_stop_3116315721,Bệnh viện Chợ Rẫy,,10.754869,106.659448,,
ho chi minh city_stop_3116315722,Thuận Kiều Plaza,,10.754577,106.658009,,
ho chi minh city_stop_11755184301,Dương Tử Giang,,10.754153,106.655551,,
ho chi minh city_stop_12767882500,Trạm biến áp Bình Thái,,10.837488,106.766389,,
ho chi minh city_stop_13095375534,Ga An Phú,,10.801834,106.741620,,
ho chi minh city_stop_11755184303,Trường Trung học Phổ thông Trần Khai Nguyên,,10.758719,106.669236,,
ho chi minh city_stop_11755184304,Đại học Kinh tế,,10.761441,106.668614,,
ho chi minh city_stop_11755184305,Trường Trung học Cơ sở Hoàng Văn Thụ,,10.763088,106.668251,,
ho chi minh city_stop_4623078285,Chợ Nhật Tảo,,10.765352,106.667751,,
ho chi minh city_stop_4623079391,Học viện Quân y,,10.767061,106.667376,,
ho chi minh city_stop_3339195229,Bệnh Viện Nhi Đồng - Sư Vạn Hạnh - BV 115,,10.769541,106.670696,,
ho chi minh city_stop_3339195237,Nhà Thờ Vinh Sơn,,10.770347,106.672277,,
ho chi minh city_stop_3160533668,Nhà hát Hòa Bình,,10.771928,106.674836,,
ho chi minh city_stop_3160533670,Học viện Hành chính Quốc gia,,10.773377,106.677230,,
ho chi minh city_stop_11755184306,Bệnh viện Bình Dân,,10.774417,106.678847,,
ho chi minh city_stop_11755184307,Siêu thị Maximark,,10.776356,106.680592,,
ho chi minh city_stop_11755184308,Ga Sài Gòn,,10.782288,106.677916,,
ho chi minh city_stop_11755184309,Nhà thờ Dòng Chúa Cứu thế,,10.780804,106.681300,,
ho chi minh city_stop_11755184310,Trần Quốc Thảo,,10.784522,106.682954,,
ho chi minh city_stop_3178456808,Chợ Nguyễn Văn Trỗi,,10.787057,106.679481,,
ho chi minh city_stop_11755184312,Trần Quang Diệu,,10.788391,106.678262,,
ho chi minh city_stop_11755184313,Bệnh viện An Sinh,,10.790975,106.678100,,
ho chi minh city_stop_11755184314,Ngã tư Nguyễn Văn Trỗi,,10.792991,106.677967,,
ho chi minh city_stop_3167034797,Rạp Tân Sơn Nhất,,10.802538,106.665912,,
ho chi minh city_stop_3167034798,Bãi xe buýt Phổ Quang,,10.805329,106.666660,,
ho chi minh city_stop_3167034799,Cây xăng Quân đội  - 96-100 Phổ Quang,,10.807197,106.668462,,
ho chi minh city_stop_3167034800,Trường Đại học Kỹ thuật Công nghệ,,10.808236,106.672232,,
ho chi minh city_stop_3167038258,Cuối công viên Gia Định,,10.809747,106.674906,,
ho chi minh city_stop_2363997552,Ngã ba Đặng Văn Sâm,,10.811436,106.676429,,
ho chi minh city_stop_3167039162,Đầu Công viên Gia Định,,10.813137,106.677911,,
ho chi minh city_stop_11755184322,Ngã ba Phạm Ngũ Lão,,10.820840,106.684033,,
ho chi minh city_stop_11755184323,Trường Đại học Công nghiệp,,10.822818,106.685589,,
ho chi minh city_stop_3168915061,Uỷ ban Nhân dân Phường 5,,10.825148,106.687972,,
ho chi minh city_stop_12592904946,Vòng xoay Dân Chủ,,10.778602,106.681211,,
ho chi minh city_stop_12592904947,Nguyễn Thông,,10.781372,106.679429,,
ho chi minh city_stop_3168915062,Bãi hậu cần số 1,,10.823964,106.691945,,
ho chi minh city_stop_11755184327,Uỷ ban Nhân dân Phường 5,,10.825505,106.688274,,
ho chi minh city_stop_11755184328,Trường Đại học Công nghiệp,,10.822758,106.685291,,
ho chi minh city_stop_11755184329,Ngã ba Phạm Ngũ Lão,,10.820935,106.683884,,
ho chi minh city_stop_3168924675,Nhà thờ Phú Nhuận,,10.798632,106.677556,,
ho chi minh city_stop_3168063562,Công an Quận Phú Nhuận,,10.795534,106.677742,,
ho chi minh city_stop_11755184332,Ngã tư Nguyễn Văn Trỗi,,10.792718,106.677925,,
ho chi minh city_stop_11755184333,Bệnh viện An Sinh,,10.791171,106.678036,,
ho chi minh city_stop_3168904961,Lê Văn Sỹ,,10.788515,106.678178,,
ho chi minh city_stop_3178456809,Chợ Nguyễn Văn Trỗi,,10.786952,106.679290,,
ho chi minh city_stop_3168901216,Trần Quốc Thảo,,10.783813,106.682719,,
ho chi minh city_stop_11755184337,Nhà thờ Dòng Chúa Cứu thế,,10.780671,106.681121,,
ho chi minh city_stop_11755184338,Nguyễn Thông,,10.781361,106.679527,,
ho chi minh city_stop_11755184339,Ga Hòa Hưng,,10.781517,106.678418,,
ho chi minh city_stop_11755184340,Rạch Bùng Binh,,10.780725,106.678863,,
ho chi minh city_stop_11755184341,Vòng xoay Dân Chủ,,10.778608,106.681109,,
ho chi minh city_stop_4646788531,Siêu thị Maximark,,10.777112,106.680776,,
ho chi minh city_stop_11755184342,Bệnh viện Bình Dân,,10.774743,106.678997,,
ho chi minh city_stop_11755184343,Học viện Hành chính Quốc gia,,10.773426,106.676920,,
ho chi minh city_stop_11755184344,Học viện Hành chính Quốc gia,,10.772638,106.675660,,
ho chi minh city_stop_3160527872,Nhà hát Hòa Bình,,10.771707,106.674208,,
ho chi minh city_stop_11755184345,Nhà thờ Vinh Sơn,,10.770582,106.672217,,
ho chi minh city_stop_11755184346,Bệnh viện Nhi Đồng 1,,10.769642,106.670466,,
ho chi minh city_stop_11755184347,Học viện Quân y,,10.766800,106.667226,,
ho chi minh city_stop_4623078286,Chợ Nhật Tảo,,10.764936,106.667633,,
ho chi minh city_stop_3150110708,Trường Trung học Cơ sở Hoàng Văn Thụ,,10.763326,106.668008,,
ho chi minh city_stop_11755184349,Đại học Kinh tế,,10.761067,106.668523,,
ho chi minh city_stop_11755184350,Ngô Gia Tự,,10.758785,106.668054,,
ho chi minh city_stop_11755184351,Trung tâm Giáo dục Thường xuyên,,10.756795,106.666571,,
ho chi minh city_stop_2392398227,Rạp Đại Quang,,10.752486,106.658805,,
ho chi minh city_stop_3116882960,Bùi Minh Trực,,10.736320,106.656266,,
ho chi minh city_stop_3116882962,Cầu Nhị Thiên Đường,,10.738640,106.656333,,
ho chi minh city_stop_11755528581,Tùng Thiện Vương,,10.744575,106.656838,,
ho chi minh city_stop_3116882966,Chợ Xóm Củi,,10.746131,106.659747,,
ho chi minh city_stop_3116882975,Bệnh viện Hùng Vương,,10.757524,106.661881,,
ho chi minh city_stop_3116882976,CoopMart Lý Thường Kiệt,,10.759595,106.661237,,
ho chi minh city_stop_3116882980,Điện lực Phú Thọ,,10.765193,106.659683,,
ho chi minh city_stop_9751137180,Nhà thi đấu Phú Thọ,,10.767450,106.659093,,
ho chi minh city_stop_3116882983,Bệnh viện Trưng Vương,,10.769705,106.658464,,
ho chi minh city_stop_5242148773,Đại học Bách Khoa,,10.772539,106.657653,,
ho chi minh city_stop_3116882987,Bưu điện Phú Thọ,,10.776517,106.656525,,
ho chi minh city_stop_3116882988,Ngã ba Thành Thái,,10.778685,106.655937,,
ho chi minh city_stop_11755528589,Siêu thị Nguyễn Kim - CMC Tân Bình,,10.781002,106.655255,,
ho chi minh city_stop_3116882992,Cây xăng Đôi,,10.783833,106.654447,,
ho chi minh city_stop_3116882994,Chợ Tân Bình,,10.786201,106.653771,,
ho chi minh city_stop_3116882996,Bệnh viện Chỉnh hình và Phục hồi Chức năng,,10.788618,106.653087,,
ho chi minh city_stop_3116882997,Bệnh viện Thống Nhất,,10.792082,106.653041,,
ho chi minh city_stop_3116882999,Bệnh viện Quận Tân Bình,,10.794588,106.655047,,
ho chi minh city_stop_3116883004,Nhà hàng Đông Phương,,10.798549,106.659231,,
ho chi minh city_stop_1171615088,Siêu thị Big C,,10.799948,106.669573,,
ho chi minh city_stop_11755528596,Khách sạn Tân Sơn Nhất,,10.799851,106.670942,,
ho chi minh city_stop_1171615062,Công an Quận Phú Nhuận,,10.799602,106.673743,,
ho chi minh city_stop_1171615063,Ngã tư Phan Xích Long,,10.800430,106.681707,,
ho chi minh city_stop_1171615064,Ngã tư Thích Quảng Đức,,10.802639,106.683983,,
ho chi minh city_stop_1171615073,Trường Đại học Văn Hiến,,10.803901,106.686095,,
ho chi minh city_stop_3141309028,Bệnh viện Phước An,,10.803648,106.687905,,
ho chi minh city_stop_1226457739,Công viên Văn hóa Phú Nhuận,,10.803346,106.690390,,
ho chi minh city_stop_3141309629,Uỷ ban Nhân dân Quận Bình Thạnh,,10.802698,106.695145,,
ho chi minh city_stop_4989081996,Lăng Ông Bà Chiểu,,10.802445,106.697108,,
ho chi minh city_stop_1226457742,Chợ Bà Chiểu,,10.802957,106.699429,,
ho chi minh city_stop_3116339962,Tòa án Nhân dân Quận Bình Thạnh,,10.803639,106.701152,,
ho chi minh city_stop_3116339964,Chùa Bồ Đề,,10.803306,106.703980,,
ho chi minh city_stop_1226494771,Nhà thờ Hàng Xanh,,10.803096,106.706704,,
ho chi minh city_stop_11755528608,Cổng ra - Bến xe Miền Đông 3,,10.811647,106.712513,,
ho chi minh city_stop_11755528610,Ngã tư Bình Triệu,,10.826056,106.715616,,
ho chi minh city_stop_3116353269,Đường số 20,,10.827865,106.720991,,
ho chi minh city_stop_11755528611,Chùa Ưu Đàm,,10.830633,106.724745,,
ho chi minh city_stop_3116353273,Cá sấu Hoa cà,,10.833556,106.728344,,
ho chi minh city_stop_3116353274,Trường Trung học Cơ sở Ngô Chí Quốc,,10.835539,106.730782,,
ho chi minh city_stop_3116353275,Chùa An Lạc,,10.837576,106.733520,,
ho chi minh city_stop_11755528612,Cầu Gò Dưa,,10.839816,106.740559,,
ho chi minh city_stop_3116353277,Trạm xăng 27-7,,10.841246,106.746266,,
ho chi minh city_stop_11755528615,Công an Phường Linh Đông,,10.844805,106.749636,,
ho chi minh city_stop_3116353278,Trạm Cầu Ngang,,10.847431,106.752067,,
ho chi minh city_stop_2984717728,Chợ Thủ Đức,,10.850220,106.754427,,
ho chi minh city_stop_11755528617,Chợ Chiều - Xa lộ Hà Nội,,10.853434,106.780514,,
ho chi minh city_stop_11755528618,Cầu vượt Trạm 2,,10.863628,106.797719,,
ho chi minh city_stop_7183291637,Suối Tiên,,10.866074,106.802198,,
ho chi minh city_stop_11755528619,Nghĩa trang Liệt sĩ Thành phố,,10.873590,106.809499,,
ho chi minh city_stop_6543789617,Vành đại Đại học Quốc gia Thành phố,,10.874373,106.807006,,
ho chi minh city_stop_6543789616,Ký túc xá Khu A Đại học Quốc gia Thành phố,,10.875782,106.805070,,
ho chi minh city_stop_6742385295,Đại học Quốc tế,,10.876641,106.802452,,
ho chi minh city_stop_4838067292,Đại học Khoa học Xã hội và Nhân văn,,10.873447,106.802313,,
ho chi minh city_stop_11755528620,Đại học Khoa học Tự nhiên,,10.874614,106.806249,,
ho chi minh city_stop_11787220793,Nhà văn hóa Sinh viên,,10.874482,106.800213,,
ho chi minh city_stop_2984626239,Bến xe buýt Khu A Đại học Quốc gia,,10.873617,106.803064,,
ho chi minh city_stop_6742352526,Đại học Quốc tế,,10.876397,106.802483,,
ho chi minh city_stop_4765823672,Ký túc xá Khu A Đại học Quốc gia Thành phố,,10.875647,106.804879,,
ho chi minh city_stop_11755528622,Đại học An ninh Nhân dân,,10.871625,106.806718,,
ho chi minh city_stop_6841128309,Trường Giáo dục Quốc phòng,,10.869216,106.804708,,
ho chi minh city_stop_7183291636,Khu du lịch Suối Tiên,,10.866011,106.800943,,
ho chi minh city_stop_11755528623,Cầu vượt Trạm 2,,10.863929,106.797450,,
ho chi minh city_stop_11755528625,Chợ Thủ Đức,,10.850335,106.754050,,
ho chi minh city_stop_11755528626,Cầu Ngang,,10.847173,106.751635,,
ho chi minh city_stop_11755528627,Công an Phường Linh Đông,,10.845111,106.749794,,
ho chi minh city_stop_11755528628,Trạm xăng 27-7,,10.841698,106.746614,,
ho chi minh city_stop_11755528630,Nút giao Linh Đông - Phạm Văn Đồng,,10.840741,106.742615,,
ho chi minh city_stop_11755528632,Chùa An Lạc,,10.837078,106.732158,,
ho chi minh city_stop_11755528633,Cá sấu Hoa Cà,,10.833570,106.727823,,
ho chi minh city_stop_11755528634,Đường số 20,,10.828197,106.720931,,
ho chi minh city_stop_11755528635,Ngã tư Bình Triệu,,10.826569,106.715912,,
ho chi minh city_stop_1171587740,Nhà thờ Hàng Xanh,,10.803165,106.708089,,
ho chi minh city_stop_1204093501,Chùa Bồ Đề,,10.803454,106.704052,,
ho chi minh city_stop_1204093498,Tòa án Nhân dân Quận Bình Thạnh,,10.803862,106.701196,,
ho chi minh city_stop_1204093495,Chợ Bà Chiểu,,10.803152,106.699361,,
ho chi minh city_stop_4989081989,Uỷ ban Nhân dân Quận Bình Thạnh,,10.802857,106.695690,,
ho chi minh city_stop_1171583923,Bệnh viện Gia Định,,10.803110,106.693436,,
ho chi minh city_stop_1171583921,Phòng Cảnh sát Phòng cháy Chữa cháy Quận Bình Thạnh,,10.803341,106.691671,,
ho chi minh city_stop_1171583920,Bệnh viện Phước An,,10.803878,106.687574,,
ho chi minh city_stop_1171583911,Đại học Văn Hiến,,10.804067,106.686086,,
ho chi minh city_stop_1171583941,Ngã tư Thích Quảng Đức,,10.802525,106.683643,,
ho chi minh city_stop_1204093531,Ngã tư Phan Xích Long,,10.800874,106.681942,,
ho chi minh city_stop_11755528646,Ngã tư Phú Nhuận,,10.799321,106.679214,,
ho chi minh city_stop_11755528647,Công an Quận Phú Nhuận,,10.799724,106.674335,,
ho chi minh city_stop_3116902314,Siêu thị Big C - 202 Hoàng Văn Thụ,,10.800127,106.669556,,
ho chi minh city_stop_11755528649,Vòng xoay Lăng Cha Cả,,10.798745,106.659155,,
ho chi minh city_stop_11755528650,Công an Quận Tân Bình,,10.797094,106.657489,,
ho chi minh city_stop_3116883000,Hội chợ Triển lãm Tân Bình,,10.796103,106.655144,,
ho chi minh city_stop_11755528651,Trường Phạm Ngũ Lão,,10.795972,106.654026,,
ho chi minh city_stop_3116883001,Cây xăng Đôi,,10.794212,106.652170,,
ho chi minh city_stop_3116882998,Bệnh viện Thống Nhất,,10.792085,106.652830,,
ho chi minh city_stop_3116882995,Bệnh viện Chỉnh hình và Phục hồi Chức năng,,10.788750,106.652862,,
ho chi minh city_stop_3116882993,Chợ Tân Bình,,10.786139,106.653633,,
ho chi minh city_stop_3116882991,Siêu thị Nguyễn Kim - CMC Tân Bình,,10.782674,106.654606,,
ho chi minh city_stop_11755528657,Trường Trung học Phổ thông Nguyễn Thái Bình,,10.779284,106.655588,,
ho chi minh city_stop_3116882986,Bưu điện Phú Thọ,,10.775404,106.656636,,
ho chi minh city_stop_3116882984,Đại học Bách Khoa,,10.771302,106.657828,,
ho chi minh city_stop_3116882982,Bệnh viện Trung Vương,,10.769605,106.658269,,
ho chi minh city_stop_5271925721,Điện lực Phú Thọ,,10.765768,106.659338,,
ho chi minh city_stop_3116882979,Chợ Nhật Tảo,,10.761722,106.660519,,
ho chi minh city_stop_3116882974,Bệnh viện Hùng Vương,,10.755733,106.662165,,
ho chi minh city_stop_3116882965,Tùng Thiện Vương,,10.744774,106.656874,,
ho chi minh city_stop_3116882963,Chùa Pháp Quang,,10.738609,106.656178,,
ho chi minh city_stop_3116882961,Bùi Minh Trực,,10.736482,106.656163,,
ho chi minh city_stop_3148967611,Nhà văn hóa sinh viên,,10.874828,106.799965,,
ho chi minh city_stop_3171989011,Trường Tiểu học Võ Văn Tần,,10.752236,106.649721,,
ho chi minh city_stop_4595643036,Cây Mai,,10.753707,106.649298,,
ho chi minh city_stop_4595643035,Lò Siêu,,10.753939,106.646750,,
ho chi minh city_stop_11757081904,Cây Gõ,,10.754225,106.644359,,
ho chi minh city_stop_4922121922,Chùa Huê Lâm,,10.754554,106.641267,,
ho chi minh city_stop_4587199113,Tân Hóa,,10.754747,106.639087,,
ho chi minh city_stop_4587199112,Cầu Ông Buông,,10.754774,106.635544,,
ho chi minh city_stop_3160552805,Vòng xoay Phú Lâm,,10.753419,106.633341,,
ho chi minh city_stop_11757081906,Cư xá Phú Lâm,,10.751532,106.630863,,
ho chi minh city_stop_3160552804,Hồ bơi Phú Lâm,,10.749616,106.628401,,
ho chi minh city_stop_3160552802,Công viên Phú Lâm,,10.746421,106.624414,,
ho chi minh city_stop_11757081909,Vòng xoay Kinh Dương Vương,,10.744781,106.622467,,
ho chi minh city_stop_11757081910,Bến xe Miền Tây,,10.741968,106.619104,,
ho chi minh city_stop_11757081911,428 Kinh Dương Vương,,10.741395,106.618413,,
ho chi minh city_stop_11757081912,Bệnh viện Triều An,,10.739705,106.616375,,
ho chi minh city_stop_11757081913,Hàng Dương,,10.735231,106.613124,,
ho chi minh city_stop_3164037419,SinCo,,10.731816,106.611117,,
ho chi minh city_stop_11757081915,Hoa Hồng - 620 Kinh Dương Vương,,10.729015,106.608211,,
ho chi minh city_stop_11757081916,An Lạc - 676 Kinh Dương Vương,,10.727409,106.605788,,
ho chi minh city_stop_11757081917,Thời trang - 724 Kinh Dương Vương,,10.725454,106.602991,,
ho chi minh city_stop_3169000947,Bãi xe Phương Trang,,10.721125,106.600385,,
ho chi minh city_stop_11757081919,Hưng Nhơn,,10.712251,106.598822,,
ho chi minh city_stop_11757081920,Dương Đình Cúc,,10.707079,106.598118,,
ho chi minh city_stop_11757081921,Nguyễn Hữu Trí,,10.696140,106.596475,,
ho chi minh city_stop_3168995666,Nút giao Bình Thuận,,10.691891,106.595034,,
ho chi minh city_stop_11757081922,An Phú Tây,,10.687417,106.593586,,
ho chi minh city_stop_11757081923,Công ty Thiên Lộc,,10.684546,106.592175,,
ho chi minh city_stop_11757081924,Văn phòng Ấp 5,,10.681394,106.588983,,
ho chi minh city_stop_11757081925,Ô tô Hải Âu,,10.676503,106.583157,,
ho chi minh city_stop_11757081926,Bùi Thanh Khiết,,10.673964,106.580399,,
ho chi minh city_stop_11757081927,Trịnh Như Khuê,,10.670470,106.576686,,
ho chi minh city_stop_11757081928,Trường Trung cấp Nghề Trần Đại Nghĩa,,10.668833,106.574627,,
ho chi minh city_stop_11757081929,Chợ Bình Chánh,,10.666419,106.571631,,
ho chi minh city_stop_11757081930,Trịnh Như Khuê - C10/13 Đinh Đức Thiện,,10.663262,106.571307,,
ho chi minh city_stop_11757081931,Bờ Kinh,,10.660946,106.576331,,
ho chi minh city_stop_11757081932,Điện máy Lộc Đức,,10.658846,106.579873,,
ho chi minh city_stop_11757081933,Công ty Tia Sáng,,10.657199,106.582612,,
ho chi minh city_stop_11757081934,Hương lộ 11 - Đinh Đức Thiện,,10.656010,106.584586,,
ho chi minh city_stop_11757081935,Chùa Liên Hoa,,10.656122,106.586029,,
ho chi minh city_stop_11757081936,Xã Tân Quý Tây,,10.657060,106.588258,,
ho chi minh city_stop_11757081937,Đình Phước Bình,,10.658462,106.591513,,
ho chi minh city_stop_11757081938,Minh Quân,,10.660088,106.595218,,
ho chi minh city_stop_11757081939,Công ty Thông Hương,,10.661634,106.598787,,
ho chi minh city_stop_11757081940,Trường Mầm non Bông Sen,,10.661949,106.600664,,
ho chi minh city_stop_11757081941,Trường Trung học Cơ sở Tân Quý Tây,,10.659958,106.604601,,
ho chi minh city_stop_11757081942,Chợ Hưng Long,,10.658775,106.606903,,
ho chi minh city_stop_11757081943,Phòng khám Thanh Lịch,,10.657103,106.610279,,
ho chi minh city_stop_11757081944,Trạm Xăng dầu Mười Vũ,,10.655601,106.613309,,
ho chi minh city_stop_11757081945,Trạm Y tế Xã Hưng Long,,10.653802,106.616823,,
ho chi minh city_stop_11757081946,Đường liên ấp 3-4-5,,10.652571,106.619311,,
ho chi minh city_stop_11757081947,Uỷ ban Nhân dân Xã Hưng Long,,10.651196,106.622021,,
ho chi minh city_stop_11757081948,Ấp 2 - C6/32 (C7/32) Hương lộ 11,,10.648969,106.626433,,
ho chi minh city_stop_11757081949,Hội quán Thanh Niên,,10.647528,106.629125,,
ho chi minh city_stop_11757081950,Tân Liễu,,10.645646,106.632666,,
ho chi minh city_stop_11757081951,Hốc Hữu,,10.644035,106.635646,,
ho chi minh city_stop_11757081952,Trạm xăng Hòa Hiệp,,10.641866,106.639661,,
ho chi minh city_stop_11757081953,Nguyễn Văn Thời,,10.640605,106.641971,,
ho chi minh city_stop_11757081954,Nguyễn Văn Long,,10.639373,106.644321,,
ho chi minh city_stop_11757081957,Nguyễn Văn Long,,10.639420,106.644431,,
ho chi minh city_stop_11757081958,Nguyễn Văn Thời,,10.640939,106.641616,,
ho chi minh city_stop_11757081959,Trạm xăng Hòa Hiệp,,10.642075,106.639516,,
ho chi minh city_stop_11757081960,Hộc Hữu,,10.643957,106.636105,,
ho chi minh city_stop_11757081961,Tân Liễu,,10.645988,106.632291,,
ho chi minh city_stop_11757081962,Hội quán Thanh Niên,,10.647480,106.629492,,
ho chi minh city_stop_11757081963,Ấp 2 - C5/31D Hương lộ 11,,10.649208,106.626195,,
ho chi minh city_stop_11757081964,Uỷ ban Nhân dân Xã Hưng Long,,10.651367,106.621964,,
ho chi minh city_stop_11757081965,Đường liên ấp 3-4-5,,10.652566,106.619545,,
ho chi minh city_stop_11757081966,Trạm Y tế Xã Hưng Long,,10.653968,106.616783,,
ho chi minh city_stop_11757081967,Trạm Xăng dầu Mười Vũ,,10.655841,106.613009,,
ho chi minh city_stop_11757081968,Phòng khám Thanh Lịch,,10.657264,106.610207,,
ho chi minh city_stop_11757109469,Chợ Hưng Long,,10.659009,106.606733,,
ho chi minh city_stop_11757109470,Trường Trung học Cơ sở Tân Quý Tây,,10.660021,106.604750,,
ho chi minh city_stop_11757109471,Trường Mầm non Bông Sen,,10.662106,106.600584,,
ho chi minh city_stop_11757109472,Công ty Thông Hương,,10.661824,106.598899,,
ho chi minh city_stop_11757109473,Minh Quân,,10.660157,106.595104,,
ho chi minh city_stop_11757109474,Đình Phước Bình,,10.658680,106.591724,,
ho chi minh city_stop_11757109475,Xã Tân Quý Tây,,10.657293,106.588492,,
ho chi minh city_stop_11757109476,Chùa Liên Hoa,,10.656213,106.585963,,
ho chi minh city_stop_11757109477,Đinh Đức Thiện - Hương lộ 11,,10.656106,106.584643,,
ho chi minh city_stop_11757109478,Công ty Tia Sáng,,10.657218,106.582809,,
ho chi minh city_stop_11757109479,Điện máy Lộc Đức,,10.658741,106.580240,,
ho chi minh city_stop_11757109480,Bờ Kinh,,10.660883,106.576656,,
ho chi minh city_stop_11757109481,Trịnh Như Khuê - 13/11 Đinh Đức Thiện,,10.663333,106.571394,,
ho chi minh city_stop_11757109482,Chợ Bình Chánh,,10.666247,106.571758,,
ho chi minh city_stop_11757109483,Trường Trung cấp Nghề Trần Đại Nghĩa,,10.668700,106.574804,,
ho chi minh city_stop_11757109484,Trịnh Như Khuê,,10.670159,106.576619,,
ho chi minh city_stop_11757109485,Ô tô Hải Âu,,10.675626,106.582467,,
ho chi minh city_stop_11757109486,Văn phòng Ấp 5,,10.681440,106.589246,,
ho chi minh city_stop_11757109487,Công ty Thiên Lộc,,10.684362,106.592284,,
ho chi minh city_stop_11757109488,An Phú Tây,,10.686800,106.593750,,
ho chi minh city_stop_11757109489,Nút giao Bình Thuận,,10.691793,106.595427,,
ho chi minh city_stop_11757109490,Nguyễn Hữu Trí,,10.697073,106.597014,,
ho chi minh city_stop_11757109491,Dương Đình Cúc,,10.706308,106.598226,,
ho chi minh city_stop_11757109492,Hưng Nhân,,10.711953,106.599383,,
ho chi minh city_stop_3169000948,Trần Đại Nghĩa,,10.721084,106.600943,,
ho chi minh city_stop_4923102921,Cầu An Lạc,,10.724273,106.602262,,
ho chi minh city_stop_3164037418,Hoa Hồng - 771 Kinh Dương Vương,,10.726626,106.605216,,
ho chi minh city_stop_11757109495,Hàng Dương - 703 Kinh Dương Vương,,10.728181,106.607552,,
ho chi minh city_stop_11757109496,Ủy ban,,10.730044,106.610270,,
ho chi minh city_stop_11757109497,Lâm Thành,,10.734130,106.612890,,
ho chi minh city_stop_11757109498,Tên Lửa - 251 Kinh Dương Vương,,10.737516,106.614924,,
ho chi minh city_stop_4921983122,Bệnh viện Triều An,,10.739671,106.616866,,
ho chi minh city_stop_11757109499,Bến xe Miền Tây,,10.741055,106.618526,,
ho chi minh city_stop_3160552800,Chợ An Lạc,,10.743449,106.621353,,
ho chi minh city_stop_3160552801,Kinh Dương Vương,,10.744907,106.623187,,
ho chi minh city_stop_4935382221,Công viên Phú Lâm,,10.747541,106.626331,,
ho chi minh city_stop_11757109500,Hồ bơi Phú Lâm,,10.748899,106.627988,,
ho chi minh city_stop_11757109501,Cư xá Phú Lâm,,10.751167,106.630900,,
ho chi minh city_stop_11757109502,Vòng xoay Phú Lâm,,10.753240,106.633591,,
ho chi minh city_stop_4921995521,Cầu Ông Buông,,10.754605,106.638300,,
ho chi minh city_stop_11757109503,ACB Hồng Bàng,,10.754247,106.641260,,
ho chi minh city_stop_4587199114,Trường Trung học Cơ sở Nguyễn Đức Cảnh,,10.753956,106.643982,,
ho chi minh city_stop_11757109504,Chùa Nam Phổ Đà,,10.753789,106.646073,,
ho chi minh city_stop_11757109505,Lò Siêu,,10.753545,106.648184,,
ho chi minh city_stop_11335586132,Ngã tư Thủ Đức,,10.848399,106.773095,,
ho chi minh city_stop_11337172377,Bê tông Hải Âu,,10.844228,106.770719,,
ho chi minh city_stop_11337172375,Đối diện Uỷ ban Nhân dân Quận 9 cũ,,10.840758,106.768731,,
ho chi minh city_stop_11782827574,Vòng xoay Hàng Xanh,,10.801492,106.709851,,
ho chi minh city_stop_1497313167,Đại học Hồng Bàng,,10.799732,106.706240,,
ho chi minh city_stop_3162543049,Trạm điện Nguyễn Cửu Vân,,10.796765,106.703191,,
ho chi minh city_stop_5199014721,Cầu Điện Biên Phủ,,10.795104,106.701688,,
ho chi minh city_stop_3162508870,Đền Trần Hưng Đạo,,10.791275,106.695236,,
ho chi minh city_stop_3162508871,Công viên Lê Văn Tám,,10.788829,106.692783,,
ho chi minh city_stop_11771724353,Phạm Ngọc Thạch,,10.786959,106.691008,,
ho chi minh city_stop_11768103489,Bảo tàng Phụ nữ,,10.783508,106.687536,,
ho chi minh city_stop_11757109507,Trần Quốc Thảo,,10.782262,106.686296,,
ho chi minh city_stop_3162506784,Ngã sáu Dân Chủ,,10.778522,106.682652,,
ho chi minh city_stop_11766257769,Bến xe Chợ Lớn,,10.751109,106.652612,,
ho chi minh city_stop_11766257770,Ngân hàng Thương Tín,,10.749663,106.648226,,
ho chi minh city_stop_11757109508,Co.opmart Hậu Giang,,10.749847,106.643169,,
ho chi minh city_stop_11766257771,Cầu Hậu Giang,,10.749785,106.641492,,
ho chi minh city_stop_11766257772,Chợ Hoa,,10.748673,106.637322,,
ho chi minh city_stop_3160562076,Nguyễn Văn Luông,,10.748003,106.634628,,
ho chi minh city_stop_11766257774,Bình Phú,,10.747687,106.633327,,
ho chi minh city_stop_11766257775,Đồng Quê,,10.746496,106.628487,,
ho chi minh city_stop_3160562074,Mũi tàu Phú Lâm,,10.745503,106.624635,,
ho chi minh city_stop_12451337730,Ga Metro Thủ Đức,,10.845585,106.771383,,
ho chi minh city_stop_11768041158,Mũi tàu Phú Lâm,,10.745513,106.624917,,
ho chi minh city_stop_11768041159,Đồng Quê,,10.746310,106.628077,,
ho chi minh city_stop_11768041160,Bình Phú,,10.747573,106.633469,,
ho chi minh city_stop_11768041161,Nguyễn Văn Luông,,10.748270,106.636178,,
ho chi minh city_stop_11768041162,Chợ Hoa,,10.748761,106.638248,,
ho chi minh city_stop_5772562649,Co.opmart Hậu Giang,,10.749720,106.642865,,
ho chi minh city_stop_11768041163,Ngân hàng Thương Tín,,10.749595,106.648081,,
ho chi minh city_stop_3150775221,Bệnh viện Nhi đồng 1,,10.767804,106.670400,,
ho chi minh city_stop_3150775223,Chợ Phường 10,,10.767653,106.673381,,
ho chi minh city_stop_11757109512,Ngã bảy Lý Thái Tổ,,10.768772,106.675219,,
ho chi minh city_stop_11813095034,Cao Thắng,,10.771206,106.677343,,
ho chi minh city_stop_3116339946,Cư xá Đô Thành,,10.773253,106.679748,,
ho chi minh city_stop_11813095035,Bệnh viện Bình Dân,,10.774660,106.681338,,
ho chi minh city_stop_3116339948,Cách mạng Tháng 8,,10.777081,106.684155,,
ho chi minh city_stop_3116339949,Bệnh viện Mắt Thành phố,,10.778242,106.685443,,
