stop_id,stop_name,stop_desc,stop_lat,stop_lon,zone_id,stop_url
hanoi_stop_7603055514,Điểm đỗ xe buýt 32 Nguyễn Công Trứ,,21.013770,105.853037,,
hanoi_stop_738813781,18-20 Tuệ Tĩnh,,21.015213,105.850738,,
hanoi_stop_7824856485,Đối diện Vincom Tower - Bà Triệu,,21.011365,105.849028,,
hanoi_stop_738814496,10 Hoa Lư,,21.009515,105.847714,,
hanoi_stop_8822946815,Đối diện B13 Ký Túc Xá Bách Khoa,,21.006465,105.847234,,
hanoi_stop_738815106,Qua viện tin học Pháp ngữ 20m - Lê Thanh Nghị,,21.002872,105.847499,,
hanoi_stop_738813777,170-172 Lê Thanh Nghị,,21.001859,105.843929,,
hanoi_stop_7824915632,114-115 E8 Phương Mai,,21.004197,105.839100,,
hanoi_stop_7824915633,116-C2 Lương Định Của,,21.004476,105.835803,,
hanoi_stop_7824915634,Trạm xử lý nước thải Kim Liên,,21.005934,105.833228,,
hanoi_stop_7608990478,10 Chùa Bộc - Học viện Ngân Hàng,,21.007452,105.828796,,
hanoi_stop_7824915645,Đại học Công Đoàn - 169 Tây Sơn,,21.010376,105.825126,,
hanoi_stop_738814463,Đối diện 105 Đặng Tiến Đông,,21.012061,105.823925,,
hanoi_stop_6688359126,63 Trần Quang Diệu,,21.014959,105.824244,,
hanoi_stop_738813861,59 Hoàng Cầu,,21.017624,105.824268,,
hanoi_stop_8903312083,21 Hoàng Cầu,,21.019443,105.825181,,
hanoi_stop_738813226,426 Đê La Thành,,21.022803,105.822226,,
hanoi_stop_738815121,Nhà sách Trí Tuệ - 187G Giảng Võ,,21.025674,105.822776,,
hanoi_stop_738814565,177 Giảng Võ,,21.028126,105.825588,,
hanoi_stop_738815727,Hè trước tòa nhà PTA - Số 1 Kim Mã,,21.032242,105.829364,,
hanoi_stop_738815693,145 Nguyễn Thái Học,,21.031054,105.833767,,
hanoi_stop_738815268,85 Nguyễn Thái Học - Trường Tiểu học Lý Thường Kiệt,,21.029530,105.838949,,
hanoi_stop_738815820,7 Nguyễn Thái Học - Cửa Nam,,21.028343,105.843007,,
hanoi_stop_12717509082,167 Phùng Hưng,,21.030643,105.844946,,
hanoi_stop_738814670,115 Phùng Hưng,,21.035189,105.845857,,
hanoi_stop_8757875254,Đối diện 16 Phùng Hưng (đường trong),,21.038426,105.846504,,
hanoi_stop_738813955,26 Trần Nhật Duật,,21.038850,105.851604,,
hanoi_stop_7132790440,54 Nguyễn Hữu Huân,,21.033313,105.854407,,
hanoi_stop_738814872,36 Lý Thái Tổ - Cung thiếu nhi Hà Nội,,21.028192,105.855631,,
hanoi_stop_738815407,Đối diện Đại học Dược Hà Nội - 15 Lê Thánh Tông,,21.021503,105.857838,,
hanoi_stop_5462421044,16 Trần Hưng Đạo,,21.019505,105.857438,,
hanoi_stop_11521595975,29 Hàn Thuyên,,21.018510,105.855484,,
hanoi_stop_11521595976,52 Ngô Thì Nhậm,,21.017458,105.852862,,
hanoi_stop_11521595977,94 Ngô Thì Nhậm,,21.014198,105.853359,,
hanoi_stop_8237661968,Nhà chờ Ba La,,20.956874,105.757852,,
hanoi_stop_8237661967,Nhà chờ Văn La,,20.960041,105.761960,,
hanoi_stop_8237661966,Nhà chờ Văn Phú,,20.962830,105.764074,,
hanoi_stop_8237661965,Nhà chờ La Khê,,20.965408,105.759546,,
hanoi_stop_8237661964,Nhà chờ KĐT Park City,,20.967681,105.755459,,
hanoi_stop_8237661963,Nhà chờ Cầu La Khê,,20.970260,105.754685,,
hanoi_stop_8237661962,Nhà chờ An Hưng,,20.973232,105.757915,,
hanoi_stop_8237661961,Nhà chờ Văn Khê,,20.976580,105.762231,,
hanoi_stop_8237661960,Nhà chờ Dương Nội,,20.979449,105.765881,,
hanoi_stop_8237661959,Nhà chờ Vạn Phúc 1,,20.982277,105.769790,,
hanoi_stop_6666528584,Nhà chờ Vạn Phúc 2,,20.984819,105.774834,,
hanoi_stop_8237661958,Nhà chờ Mỗ Lao,,20.987907,105.779352,,
hanoi_stop_8237661957,Nhà chờ Trung Văn,,20.990918,105.783679,,
hanoi_stop_8237661956,Nhà chờ Lương Thế Vinh,,20.995336,105.790943,,
hanoi_stop_8237661955,Nhà chờ Khuất Duy Tiến,,20.997771,105.794523,,
hanoi_stop_8237661954,Nhà chờ Nguyễn Tuân,,21.002575,105.800807,,
hanoi_stop_8237661953,Nhà chờ Hoàng Đạo Thúy,,21.005990,105.805677,,
hanoi_stop_8237661949,Nhà chờ Núi Trúc,,21.028844,105.826306,,
hanoi_stop_11013474666,Nhà chờ Vũ Ngọc Phan,,21.013418,105.812926,,
hanoi_stop_8237661951,Nhà chờ Thành Công,,21.018132,105.815990,,
hanoi_stop_8237661950,Nhà chờ Giảng Võ,,21.024577,105.821045,,
hanoi_stop_738815662,55 Quang Trung - Đối diện hồ Thiền Quang,,21.018161,105.847419,,
hanoi_stop_8205232247,67 Trần Hưng Đạo,,21.021885,105.848946,,
hanoi_stop_5561070622,Đối diện 6C Phan Chu Trinh,,21.023599,105.856873,,
hanoi_stop_8259365871,51 Lý Thái Tổ - Ngân hàng Nhà nước Việt Nam,,21.026705,105.856277,,
hanoi_stop_738814587,23 Hàng Tre,,21.032024,105.855697,,
hanoi_stop_738813615,Số 3 Hàng Muối,,21.034354,105.854709,,
hanoi_stop_5484103149,Chùa Ái Mộ,,21.042477,105.865417,,
hanoi_stop_8259355482,52 Ngọc Lâm - Dốc Cẩm,,21.044447,105.867518,,
hanoi_stop_8259365848,170 Ngọc Lâm,,21.046195,105.870726,,
hanoi_stop_8209169361,Đối diện 447 Ngọc Lâm - Vườn hoa Gia Lâm,,21.049030,105.875875,,
hanoi_stop_8259365830,Phòng Công Chứng số 2 TPHN - 654 Nguyễn Văn Cừ,,21.052357,105.886135,,
hanoi_stop_481837167,Cây xăng số 84 Cầu Chui (BĐX Gia Thụy) - Nguyễn Văn Linh,,21.053222,105.889391,,
hanoi_stop_8739945228,Đối diện Savico MegaMall Long Biên - Nguyễn Văn Linh,,21.049885,105.891792,,
hanoi_stop_8739945229,Đối diện Công ty nước sạch - Nguyễn Văn Linh,,21.046253,105.894175,,
hanoi_stop_481836867,Đối diện UBND phường Phúc Đồng - 274 Nguyễn Văn Linh,,21.038573,105.898194,,
hanoi_stop_8739945230,Khu CN Sài Đồng - Hanel - Đối diện 523 Nguyễn Văn Linh,,21.031790,105.909710,,
hanoi_stop_481836709,Đường vào đường Thạch Bàn - đối diện 693 Nguyễn Văn Linh,,21.029660,105.914629,,
hanoi_stop_8739945231,Đối diện Công ty May 10 - Nguyễn Văn Linh,,21.028113,105.919992,,
hanoi_stop_8739945232,Qua ngã 3 Cầu Thanh Trì - Nguyễn Đức Thuận,,21.023372,105.931996,,
hanoi_stop_2517061523,Đối diện bưu điện Trâu Quỳ - Nguyễn Đức Thuận,,21.022090,105.934992,,
hanoi_stop_8739945233,36 Ngô Xuân Quảng,,21.018571,105.937036,,
hanoi_stop_8739945234,234 Ngô Xuân Quảng,,21.013295,105.936089,,
hanoi_stop_8739945235,Số 14 đường Học viện Nông nghiệp,,21.008846,105.933909,,
hanoi_stop_8739945237,Công ty Tư vấn dịch vụ khoa học Nông nghiệp - Ngô Xuân Quảng,,21.008887,105.934020,,
hanoi_stop_8739945238,285 Ngô Xuân Quảng,,21.013560,105.936280,,
hanoi_stop_8739945239,139 Ngô Xuân Quảng,,21.017378,105.936871,,
hanoi_stop_8739945240,Bưu điện Trâu Quỳ - Nguyễn Đức Thuận,,21.021458,105.937564,,
hanoi_stop_481837399,Gần ngã ba Cầu Thanh Trì - Nguyễn Đức Thuận,,21.023737,105.932123,,
hanoi_stop_481836829,Qua ngã 3 cầu Thanh Trì - Nguyễn Văn Linh,,21.027375,105.923223,,
hanoi_stop_8739945241,Công ty May 10 - Nguyễn Văn Linh,,21.028891,105.918332,,
hanoi_stop_995292341,Gần đường vào Công ty X22 - 705 Nguyễn Văn Linh,,21.029927,105.914838,,
hanoi_stop_995292569,Công ty Thí nghiệm miền Bắc - 465 Nguyễn Văn Linh,,21.032930,105.907936,,
hanoi_stop_481836891,UBND phường Phúc Đồng - 274 Nguyễn Văn Linh,,21.038583,105.898535,,
hanoi_stop_481836920,105-107 Nguyễn Văn Linh,,21.045044,105.895332,,
hanoi_stop_8739945242,Hè trước Savico Megamall - Nguyễn Văn Linh,,21.050512,105.892018,,
hanoi_stop_8739945243,MediaMart Long Biên - Nguyễn Văn Linh,,21.053500,105.889841,,
hanoi_stop_481837098,589 Nguyễn Văn Cừ,,21.052335,105.885787,,
hanoi_stop_8739945244,549 Nguyễn Văn Cừ (cột sau),,21.049489,105.883215,,
hanoi_stop_8739945245,171-173 Ngọc Lâm (Công an phường Ngọc Lâm),,21.045795,105.869766,,
hanoi_stop_5483657862,Đối diện chùa Ái Mộ,,21.041919,105.865203,,
hanoi_stop_481837251,Trần Nhật Duật (373 Hồng Hà) - Gần Hàm Tử Quan,,21.037805,105.852952,,
hanoi_stop_5362040321,40 Ngô Quyền - TT Giao Dịch Công Nghệ,,21.022864,105.854444,,
hanoi_stop_738815124,Thư viện Hà Nội - 54E Trần Hưng Đạo,,21.021581,105.850665,,
hanoi_stop_8739945246,Ga Hà Nội - 120 Lê Duẩn,,21.023367,105.841406,,
hanoi_stop_738815783,54 Lý Thường Kiệt,,21.024841,105.845568,,
hanoi_stop_6206929385,KS Melia (Lý Thường Kiệt),,21.024168,105.847835,,
hanoi_stop_10069898861,Bến xe Gia Lâm,,21.048230,105.878443,,
hanoi_stop_738813565,34-36 Tăng Bạt Hổ,,21.016498,105.858488,,
hanoi_stop_738813238,172 Lò Đúc (Cửa hàng xe máy Hon Đa),,21.011484,105.859140,,
hanoi_stop_8213181379,86 Kim Ngưu,,21.006789,105.860837,,
hanoi_stop_446044211,Tập thể E6 Quỳnh Mai - Kim Ngưu,,21.002032,105.861295,,
hanoi_stop_446044163,Cửa hàng nhựa đường số 3 - 344 Kim Ngưu,,20.997758,105.861759,,
hanoi_stop_8741080046,20 Lĩnh Nam,,20.990472,105.864419,,
hanoi_stop_738814388,Đối diện 123 Lĩnh Nam - Thôn Tân Khai,,20.986325,105.869306,,
hanoi_stop_8741080047,Đối diện số 271 Lĩnh Nam,,20.984130,105.873945,,
hanoi_stop_8741080048,Trường Trung học phổ thông Hoàng Văn Thụ,,20.982847,105.877349,,
hanoi_stop_8741080049,376-378 Lĩnh Nam,,20.981191,105.881506,,
hanoi_stop_8741080050,Bưu Điện Trung Tâm 6 - 582 Lĩnh Nam,,20.980079,105.885669,,
hanoi_stop_8741080051,Đình Nam Dư Hạ - Đường dẫn cầu Thanh Trì,,20.976768,105.886151,,
hanoi_stop_8741080052,Chùa Khuyến Lương,,20.972918,105.881157,,
hanoi_stop_8741080059,Số nhà 43 - Tổ 14 - Phường Yên Sở - Đường dẫn cầu Thanh Trì,,20.965883,105.875055,,
hanoi_stop_8741080060,"Số nhà 30 Yên Sở, Phường Yên Sở",,20.964523,105.867652,,
hanoi_stop_8741080061,"Đối diện Công Viên Yên Sở, Hoàng Mai",,20.965803,105.852311,,
hanoi_stop_8741080062,Qua lối rẽ khu hành chính quận Hoàng Mai - đường Đỗ Mười,,20.966028,105.844736,,
hanoi_stop_738813325,Đối diện Bến xe Nước ngầm Hà Nội - Ngọc Hồi (cột trước),,20.964293,105.841821,,
hanoi_stop_8741080063,Qua đối diện Công ty Cổ phần Điện Công nghiệp Hà Nội 30m,,20.961212,105.845037,,
hanoi_stop_8741080064,Tòa nhà Nơ 3 - Trần Thủ Độ,,20.959643,105.846079,,
hanoi_stop_8741080065,Nhà No9 KĐT Pháp Vân,,20.955285,105.846908,,
hanoi_stop_8213181378,48B Tăng Bạt Hổ - Viện Dinh Dưỡng - Bộ y tế,,21.014102,105.859157,,
hanoi_stop_11152433987,Đối diện 61 Tam Trinh,,20.995049,105.862562,,
hanoi_stop_8741080067,Đối diện nhà No9 KĐT Pháp Vân,,20.955618,105.846967,,
hanoi_stop_8741080068,Công viên khu đô thị Tứ Hiệp Pháp Vân (đối diện tòa nhà Nơ 3) - Trần Thủ Độ,,20.959829,105.846159,,
hanoi_stop_8741080069,Công ty Cổ phần Điện Công nghiệp Hà Nội,,20.961299,105.844609,,
hanoi_stop_8741080072,Đường vào KĐT Gamuda,,20.964196,105.858262,,
hanoi_stop_8741080073,Qua đường vào khu tái định cư X2A 30m - đường dẫn cầu Thanh Trì,,20.963640,105.863776,,
hanoi_stop_8741080074,Số nhà 15 - Tổ 15 - Phường Yên Sở - Đường dẫn cầu Thanh Trì,,20.965542,105.875683,,
hanoi_stop_8741080075,Trường mầm non Trần Phú - Tổ 8 - Phường Trần Phú - Đường dẫn cầu Thanh Trì,,20.972546,105.881644,,
hanoi_stop_8741080076,Trước Nhà máy nước Đông Dư,,20.976481,105.886940,,
hanoi_stop_8741080077,Ngõ 595 - Đối diện 602 Lĩnh Nam,,20.980026,105.886798,,
hanoi_stop_8741080078,Chợ Lòng Thuyền - 471 Lĩnh Nam,,20.981181,105.881794,,
hanoi_stop_8741080079,Doanh trại Quân đội nhân dân - 393 Lĩnh Nam,,20.982916,105.877460,,
hanoi_stop_8741080080,Công ty CP Dệt CN Hà Nội - 93 Lĩnh Nam,,20.987082,105.868306,,
hanoi_stop_8741080081,Đối diện 72 Lĩnh Nam,,20.988849,105.866059,,
hanoi_stop_738814879,89 Tam Trinh,,20.993896,105.862806,,
hanoi_stop_8741080082,Giữa số nhà 613-615 Kim Ngưu,,20.999048,105.862222,,
hanoi_stop_738813235,377 Kim Ngưu,,21.002085,105.861878,,
hanoi_stop_446044220,Giữa số nhà 169-171 Kim Ngưu,,21.006027,105.861457,,
hanoi_stop_7821883016,131 Lò Đúc,,21.012344,105.858678,,
hanoi_stop_8741080071,"Công Viên Yên Sở, Hoàng Mai",,20.965214,105.852058,,
hanoi_stop_11525014917,Trước ngã 3 vào đường Yên Sở 100 m,,20.964073,105.871635,,
hanoi_stop_5169396322,Bến xe Nước Ngầm,,20.963829,105.842143,,
hanoi_stop_12077799918,183 Lĩnh Nam,,20.985418,105.870900,,
hanoi_stop_738814448,9 Trần Thánh Tông,,21.014553,105.859894,,
hanoi_stop_738813683,Doanh trại Quân đội Nhân dân - 1B Trần Thánh Tông,,21.017313,105.859201,,
hanoi_stop_7825858603,Đại học Khoa học tự nhiên - 19 Lê Thánh Tông,,21.020498,105.858321,,
hanoi_stop_8932663264,Cổng C Bến xe Nước Ngầm,,20.965479,105.843154,,
hanoi_stop_4292651591,6-8 Tràng Thi (Qua ngã 4 Tràng Thi - Lý Quốc Sư),,21.026545,105.849684,,
hanoi_stop_4292785590,Bệnh viện Việt Đức - 40 Tràng Thi,,21.027390,105.846674,,
hanoi_stop_738815828,Trạm biến áp Đội Cấn 2 - Số nhà 47 phố Đội Cấn,,21.034504,105.830521,,
hanoi_stop_8741294705,195B Đội Cấn,,21.035107,105.823394,,
hanoi_stop_4476131489,285 Đội Cấn - Công ty Dệt Kim Hà Nội,,21.035449,105.818867,,
hanoi_stop_738815421,22 Liễu Giai,,21.035879,105.814377,,
hanoi_stop_8741294709,Dốc tập lái - 202 đường Bưởi trên,,21.035369,105.806016,,
hanoi_stop_8741294710,Gần ngõ 378 đường Bưởi tránh (bên giao Đội Cấn),,21.040852,105.806946,,
hanoi_stop_8741294711,Số 610 Đường Bưởi (gần vòng xuyến Hoàng Quốc Việt),,21.045518,105.806310,,
hanoi_stop_11515748461,Đối diện Bệnh viện đa khoa Phương Đông,,21.071675,105.775348,,
hanoi_stop_738815469,12A Điện Biên Phủ,,21.029502,105.842345,,
hanoi_stop_12167250982,Cột cờ Hà Nội - Điện Biên Phủ,,21.032160,105.839720,,
hanoi_stop_12167250983,18A Lê Hồng Phong - Ngã 4 Lê Hồng Phong - Ông Ích Khiêm,,21.034234,105.833855,,
hanoi_stop_738815334,Đối diện Bệnh Viện Trung ương Quân đội 108 - Trần Hưng Đạo,,21.018528,105.860709,,
hanoi_stop_738814946,22B Hai Bà Trưng - Cạnh Tràng Tiền Plaza,,21.024085,105.853636,,
hanoi_stop_4539039489,48 Hai Bà Trưng - Viện Kiểm Nghiệm thuốc Trung ương,,21.024911,105.850819,,
hanoi_stop_8837631356,"Hè cạnh vườn hoa 19-8, đường Hai Bà Trưng",,21.023115,105.857025,,
hanoi_stop_8856174814,10 Đào Tấn - Viện Vật lý,,21.032256,105.810277,,
hanoi_stop_8954351039,Đối diện số nhà 69 Hoàng Tăng Bí,,21.082275,105.783455,,
hanoi_stop_8347802015,Trường Đại học Y tế Cộng đồng,,21.082629,105.778164,,
hanoi_stop_8822946795,Công an phường Đức Thắng,,21.078658,105.777669,,
hanoi_stop_5485731419,Trường Cao đẳng Tài nguyên & Môi trường Hà Nội,,21.073993,105.777211,,
hanoi_stop_11528486369,68A Tân Xuân,,21.081895,105.785368,,
hanoi_stop_8920049624,Trung tâm KHTN Công nghệ Quốc Gia - 18 Hoàng Quốc Việt,,21.046416,105.801728,,
hanoi_stop_738813966,90 Hoàng Quốc Việt,,21.046399,105.796577,,
hanoi_stop_8831420038,122-124 Hoàng Quốc Việt,,21.046379,105.792082,,
hanoi_stop_738813928,212 Hoàng Quốc Việt - đối diện Học viện Chính trị Quốc gia Hồ Chí Minh,,21.046348,105.787532,,
hanoi_stop_11212782837,Trạm trung chuyển xe buýt Hoàng Quốc Việt (cột trước) - chiều đi Phạm Văn Đồng,,21.046170,105.784841,,
hanoi_stop_4584884500,655 Phạm Văn Đồng,,21.048154,105.781697,,
hanoi_stop_8821681979,36A Phạm Văn Đồng,,21.051300,105.781953,,
hanoi_stop_8831420042,UBND phường Cổ Nhuế 1 - 601 Phạm Văn Đồng,,21.054403,105.782264,,
hanoi_stop_738815813,527 Phạm Văn Đồng,,21.057657,105.783002,,
hanoi_stop_8821681980,Qua 70m đường vào Công viên Hòa Bình,,21.062248,105.784213,,
hanoi_stop_8821681981,373 Phạm Văn Đồng,,21.070524,105.785661,,
hanoi_stop_8821681982,189 Phạm Văn Đồng,,21.074987,105.786010,,
hanoi_stop_5118690545,Đối diện 528 đường Bưởi dưới - Ngã 3 Hoàng Quốc Việt,,21.044458,105.805678,,
hanoi_stop_8741301522,Đại sứ quán Nhật Bản - 27 Liễu Giai,,21.032454,105.813814,,
hanoi_stop_738813746,Viện Khoa học xã hội Việt Nam - số 1 Liễu Giai,,21.036422,105.815036,,
hanoi_stop_738814345,73 Văn Cao - Đối diện Cung thể thao Quần Ngựa,,21.039742,105.816029,,
hanoi_stop_8741301523,239-241 Hoàng Hoa Thám,,21.042079,105.819546,,
hanoi_stop_8741301524,Trường Trung học cơ sở Ba Đình - 145 Hoàng Hoa Thám,,21.040710,105.824691,,
hanoi_stop_738814864,174-176 Ngọc Hà,,21.038653,105.828921,,
hanoi_stop_3887711843,49 Hai Bà Trưng - Tháp Hà Nội,,21.026036,105.846557,,
hanoi_stop_738815169,37 Hai Bà Trưng - Bệnh viện Việt Nam Cu Ba,,21.024976,105.850138,,
hanoi_stop_11515782290,Bệnh viện đa khoa Phương Đông,,21.071475,105.774225,,
hanoi_stop_5118690559,Đối diện 298 đường Bưởi dưới,,21.039178,105.806589,,
hanoi_stop_12167250979,91-93 Lê Hồng Phong,,21.034346,105.832037,,
hanoi_stop_12167250980,1B Lê Hồng Phong - Trung tâm TDTT Khúc Hạo,,21.033436,105.837745,,
hanoi_stop_12167250981,7 Điện Biên Phủ,,21.029311,105.842339,,
hanoi_stop_738814524,Đối diện 16 Hai Bà Trưng (Ngã 4 Hai Bà Trưng- Ngô Quyền),,21.023850,105.853996,,
hanoi_stop_8822946798,Đối diện Học viện Tài chính,,21.074886,105.777397,,
hanoi_stop_8822946799,Đối diện Công ty Cổ phần Cơ điện Hà Nội,,21.077946,105.777753,,
hanoi_stop_11522073218,Ngã tư Bê tông Chèm,,21.083432,105.778243,,
hanoi_stop_8954351040,51 Hoàng Tăng Bí,,21.081945,105.784032,,
hanoi_stop_7294677886,138 Phạm Văn Đồng - Cầu vượt bộ hành,,21.074511,105.785454,,
hanoi_stop_7294698285,542 Phạm Văn Đồng,,21.071268,105.785271,,
hanoi_stop_4224823335,Trước 100m ngõ 218 Phạm Văn Đồng,,21.062171,105.783600,,
hanoi_stop_8831420065,370 Phạm Văn Đồng,,21.058045,105.782548,,
hanoi_stop_738815777,Siêu thị Metro Thăng Long,,21.054720,105.781714,,
hanoi_stop_7294678089,Chung cư GreenStars,,21.051554,105.781373,,
hanoi_stop_8831420040,Trạm trung chuyển xe buýt Hoàng Quốc Việt (cột trước) - chiều đi Bưởi,,21.046147,105.783396,,
hanoi_stop_7294698188,Trường Cao đẳng Sư phạm Mẫu giáo Trung ương,,21.046018,105.792160,,
hanoi_stop_7294698386,247-249 Hoàng Quốc Việt,,21.045990,105.796282,,
hanoi_stop_8920049630,Gần Học viện Quốc Phòng - 91 Hoàng Quốc Việt,,21.046012,105.801163,,
hanoi_stop_738815534,Học viện Chính trị Quốc gia Hồ Chí Minh,,21.045991,105.788393,,
hanoi_stop_8807115913,Số 9 Đào Tấn (đối diện 22 Đào Tấn),,21.032414,105.808691,,
hanoi_stop_8751624829,Đối diện 116 Hào Nam,,21.026968,105.827592,,
hanoi_stop_8751624830,Học viện Âm nhạc Quốc gia Việt Nam,,21.022758,105.826438,,
hanoi_stop_8751624831,109 Ô Chợ Dừa,,21.019744,105.827183,,
hanoi_stop_446044133,253 Xã Đàn,,21.016972,105.830990,,
hanoi_stop_8349461377,165 Xã Đàn,,21.014578,105.833501,,
hanoi_stop_8349461376,208A ngõ Xã Đàn 2,,21.012943,105.832588,,
hanoi_stop_8349461378,Trung tâm Văn hoá-Thể thao quận Đống Đa,,21.008938,105.831542,,
hanoi_stop_8205232237,39 Đông Tác,,21.005931,105.834434,,
hanoi_stop_8751624832,3C5 Lương Định Của,,21.004619,105.835631,,
hanoi_stop_738814010,Bệnh viện Da liễu Trung ương,,21.003955,105.838489,,
hanoi_stop_738814494,Bệnh viện Bạch Mai (cột sau),,21.001038,105.841122,,
hanoi_stop_8751624833,144-146 Phố Vọng,,20.996136,105.842802,,
hanoi_stop_8751624834,101 Nguyễn An Ninh,,20.991546,105.844354,,
hanoi_stop_8751624835,15 Nguyễn An Ninh,,20.988729,105.846518,,
hanoi_stop_8751624836,468 Trương Định,,20.985411,105.846337,,
hanoi_stop_7169064143,79 Kim Đồng,,20.983836,105.844226,,
hanoi_stop_738814324,Đối diện Bến xe Giáp Bát - Giải Phóng (cột trước),,20.979661,105.840843,,
hanoi_stop_738813337,Ga Giáp Bát - Đối diện 1035 Giải Phóng,,20.976318,105.840770,,
hanoi_stop_4421384524,Đối diện 1251 Giải Phóng,,20.971809,105.840795,,
hanoi_stop_8751624837,Qua cầu Trần Thủ Độ,,20.949141,105.848245,,
hanoi_stop_8751624838,Đối diện Nhà văn hóa Thanh Trì,,20.944677,105.845925,,
hanoi_stop_8751624839,Đối diện Nhà thi đấu Trung tâm Thể dục thể thao Thanh Trì,,20.941416,105.847213,,
hanoi_stop_8751624840,Trước lối vào Nhà văn hóa Z719 30m,,20.936231,105.848437,,
hanoi_stop_8751624841,Khu 4 block chung cư Đường Quang Lai (chiều đi),,20.932049,105.850934,,
hanoi_stop_8751624842,Cty CP Vinafut - đường Vũ Lăng,,20.930753,105.855370,,
hanoi_stop_8751624844,Đối diện Cty CP Vinafut - đường Vũ Lăng,,20.930595,105.855930,,
hanoi_stop_8751624845,Khu 4 block chung cư Đường Quang Lai (chiều về),,20.932326,105.850878,,
hanoi_stop_8751624846,Trước đối diện lối vào Nhà văn hóa Z719 30m,,20.935529,105.848957,,
hanoi_stop_8751624847,Nhà thi đấu Trung tâm Thể dục thể thao Thanh Trì,,20.941321,105.847399,,
hanoi_stop_8751624848,Nhà văn hóa Thanh Trì,,20.944401,105.846193,,
hanoi_stop_8751624849,Gần cầu Trần Thủ Độ,,20.949072,105.848599,,
hanoi_stop_1755811863,Đối diện trụ sở Công an phường Hoàng Liệt - 1277 Giải Phóng,,20.971131,105.841270,,
hanoi_stop_11968782795,Bến xe Giáp Bát,,20.980059,105.841541,,
hanoi_stop_4405443689,Số 36 Kim Đồng,,20.983511,105.844395,,
hanoi_stop_8751624850,Trung tâm thương mại Trương Định,,20.984865,105.846343,,
hanoi_stop_8751624851,22 Nguyễn An Ninh,,20.988800,105.846427,,
hanoi_stop_8751624852,134 Nguyễn An Ninh,,20.992201,105.844051,,
hanoi_stop_8895558476,Tập thể A10 - 128C Đại La,,20.997411,105.843861,,
hanoi_stop_738813681,175-177 Giải Phóng (Ngã 3 Lê Thanh Nghị),,21.001173,105.841486,,
hanoi_stop_738813975,109 Phạm Ngọc Thạch,,21.007840,105.833065,,
hanoi_stop_8349461379,101 Đặng Văn Ngữ,,21.008204,105.832229,,
hanoi_stop_8349461380,106D1 Đặng Văn Ngữ,,21.011715,105.831627,,
hanoi_stop_446044131,398 Xã Đàn,,21.015117,105.833549,,
hanoi_stop_8751624854,490 Xã Đàn,,21.017065,105.831426,,
hanoi_stop_8751624855,94 Ô Chợ Dừa,,21.020298,105.826919,,
hanoi_stop_8751624856,Đối diện Học viện Âm nhạc Quốc gia Việt Nam,,21.022944,105.826844,,
hanoi_stop_8751624857,188 Hào Nam,,21.027492,105.827694,,
hanoi_stop_8236303286,Điểm xén hè (Toà nhà CT2 - KĐT Bắc Linh Đàm) - Cầu Dậu,,20.970505,105.826315,,
hanoi_stop_738814333,Đối diện cổng phụ Bệnh viện đa khoa y học cổ truyền,,20.972846,105.824800,,
hanoi_stop_8236303325,Đối diện trường Tiểu học - Trung học cơ sở Đại Kim,,20.978634,105.822314,,
hanoi_stop_738813734,Đối diện 222 Kim Giang,,20.979544,105.820171,,
hanoi_stop_738813591,Đối diện 32 Kim Giang,,20.985512,105.813922,,
hanoi_stop_738813332,Đối diện 272 Khương Đình,,20.991381,105.813450,,
hanoi_stop_8236289508,Đối diện 134 Khương Đình,,20.994752,105.814443,,
hanoi_stop_738813733,Chợ Thượng Đình - 224 Nguyễn Trãi,,20.997752,105.811959,,
hanoi_stop_7617390955,Trường tiểu học Trung Yên - đường Nguyễn Chánh,,21.010804,105.793427,,
hanoi_stop_8236303241,54 Mạc Thái Tông,,21.013734,105.795069,,
hanoi_stop_8236289492,Đối diện Đại học Phương Đông - 102 Trung Kính,,21.016556,105.794278,,
hanoi_stop_8236289502,Trước trường Trung học cơ sở Yên Hòa 30m - Trung Kính,,21.022079,105.790923,,
hanoi_stop_8236303281,Qua đối diện Viện Huyết học và truyền máu Trung ương 20m - Phạm Văn Bạch,,21.025516,105.788848,,
hanoi_stop_8236303297,Sân bóng Đồng Bông - Tôn Thất Thuyết (gần ĐH FPT),,21.028112,105.784664,,
hanoi_stop_8236303305,Trường ĐH FPT - đường Tôn Thất Thuyết,,21.028534,105.781978,,
hanoi_stop_8236303317,Cục Đăng Kiểm Việt Nam - đường Nguyễn Hoàng,,21.029110,105.778131,,
hanoi_stop_8237141705,36 Nguyễn Hoàng,,21.030919,105.774755,,
hanoi_stop_8237141707,Vịnh xén hè xe buýt trước tòa nhà Sun Square - đường Nguyễn Hoàng,,21.033376,105.770533,,
hanoi_stop_8237141695,4 Hàm Nghi,,21.034370,105.766863,,
hanoi_stop_6832637185,Đối diện UBND phường Từ Liêm,,21.040153,105.766473,,
hanoi_stop_11515658236,Ga Cầu Diễn,,21.041468,105.762764,,
hanoi_stop_8925798721,Đối diện Vietcombank - Chung cư A1,,21.036190,105.766682,,
hanoi_stop_8772715673,Chợ đầu mối (gần cầu Đền Lừ),,20.983798,105.861742,,
hanoi_stop_8772715672,Công viên hồ Đền Lừ,,20.983677,105.853437,,
hanoi_stop_8772715670,Trường Trung học cơ sở Tân Mai,,20.983813,105.848981,,
hanoi_stop_738814297,658 Trương Định,,20.981255,105.845255,,
hanoi_stop_738814832,Đối diện đài tưởng niệm chủ tịch HCM - đường Nguyễn Hữu Thọ,,20.969607,105.830975,,
hanoi_stop_12549076369,Trường Đại học Công Thương Hà Nội - Vũ Trọng Phụng,,20.998526,105.808958,,
hanoi_stop_12549076370,Chợ Nhân Chính - Vũ Trọng Phụng,,21.002308,105.806178,,
hanoi_stop_12549076371,118 Hoàng Đạo Thuý,,21.004338,105.806307,,
hanoi_stop_738813552,Nhà 24T2 KĐT Trung Hoà Nhân Chính - Hoàng Đạo Thúy,,21.007534,105.802711,,
hanoi_stop_738815502,Đối diện Bộ Khoa học & Công nghệ - 146 Trần Duy Hưng,,21.010110,105.798760,,
hanoi_stop_8237141697,Đối diện 51 đường K1 Cầu Diễn,,21.047161,105.762632,,
hanoi_stop_8821681975,Gần đường vào KĐT Đại Kim - 45 Nguyễn Hữu Thọ,,20.970970,105.836222,,
hanoi_stop_8755733274,Hè trước Đơn nguyên 2 KTX Mỹ Đình - đường Hàm Nghi,,21.034067,105.766956,,
hanoi_stop_8755733275,Vịnh xén hè xe buýt đối diện tòa nhà Sun Square - đường Nguyễn Hoàng,,21.033093,105.770768,,
hanoi_stop_8755733276,Vịnh xén hè xe buýt đối diện tòa nhà PT2 - KĐT Phú Mỹ - đường Nguyễn Hoàng,,21.030732,105.774532,,
hanoi_stop_8755733277,Trước 100m ngã 4 Nguyễn Hoàng - Phạm Hùng (đối diện công ty CP Sông Đà 9),,21.028989,105.777167,,
hanoi_stop_8755733278,"Bộ Nội Vụ, Bộ Tài Nguyên Môi Trường - 10 Tôn Thất Thuyết",,21.028305,105.781817,,
hanoi_stop_8755733279,9-11 Phạm Văn Bạch,,21.026389,105.787936,,
hanoi_stop_8755733280,Đối diện Trường Trung học cơ sở Yên Hòa - 282 Trung Kính,,21.022084,105.790579,,
hanoi_stop_8755733281,Đại học Phương Đông - 201B Trung Kinh,,21.016090,105.794196,,
hanoi_stop_8755733282,Cty CP xây lắp bưu điện - đường Vũ Phạm Hàm,,21.013487,105.794416,,
hanoi_stop_7622910381,Đối diện trường tiểu học Trung Yên - đường Nguyễn Chánh,,21.010718,105.793303,,
hanoi_stop_8755733286,254-256 Khương Đình,,20.991918,105.813442,,
hanoi_stop_738814467,42 Kim Giang,,20.984582,105.814356,,
hanoi_stop_8755733287,214 Kim Giang,,20.979502,105.820048,,
hanoi_stop_8755733288,292 Kim Giang,,20.977959,105.823249,,
hanoi_stop_8755733289,Cách cổng Bệnh viện Đa khoa Y học cổ truyền 50m,,20.972264,105.824578,,
hanoi_stop_738814966,Điểm xén hè (Cửa hàng xăng dầu số 75) - Số 6 Cầu Dậu,,20.970057,105.826089,,
hanoi_stop_8755733273,Nhà ga Cầu Diễn - Hồ Tùng Mậu,,21.041020,105.762622,,
hanoi_stop_8923111207,Khoảng Xén Hè Chung Cư A1- Ngân hàng Vietcombank - Nguyễn Cơ Thạch,,21.036254,105.766376,,
hanoi_stop_12549076372,Giữa nhà 139 và 141 Phú Diễn,,21.046386,105.762889,,
hanoi_stop_11516291185,UBND phường Từ Liêm,,21.039896,105.766067,,
hanoi_stop_738815210,113 Trần Duy Hưng - Bộ Khoa học & Công nghệ,,21.009772,105.798912,,
hanoi_stop_738813563,Đối diện nhà 24T2 KĐT Trung Hoà Nhân Chính - Hoàng Đạo Thúy,,21.007289,105.802594,,
hanoi_stop_7622915971,Trường Trung học phổ thông Nhân Chính - Hoàng Đạo Thúy,,21.004023,105.806507,,
hanoi_stop_738813335,21T2 Vũ Trọng Phụng,,21.001291,105.806662,,
hanoi_stop_738813831,57 Vũ Trọng Phụng,,20.998413,105.808979,,
hanoi_stop_8939177165,Ga Thượng Đình - Nguyễn Trãi,,20.997777,105.812742,,
hanoi_stop_8829926857,Đối diện Ao sen Làng Đại Từ - Nguyễn Hữu Thọ,,20.969564,105.831334,,
hanoi_stop_8829926858,Đối diện đường vào KĐT Đại Kim - 45 Nguyễn Hữu Thọ,,20.970766,105.836269,,
hanoi_stop_6606567072,773 Trương Định,,20.977047,105.841658,,
hanoi_stop_11514018113,609 Trương Định - Công ty Cơ khí 120,,20.980834,105.845063,,
hanoi_stop_8772715669,Đối diện Trường Trung học cơ sở Tân Mai,,20.983500,105.848981,,
hanoi_stop_8772715671,Đối diện Công viên Hồ Đền Lừ,,20.983440,105.853564,,
hanoi_stop_10028987061,129T Nguyễn Trãi - Cầu vượt đi bộ Royal City,,20.999437,105.815295,,
hanoi_stop_738815707,Sân vận động Thượng Đình -129 Nguyễn Trãi,,21.000689,105.817216,,
hanoi_stop_8766627149,441 Tam Trinh,,20.984835,105.863775,,
hanoi_stop_738814268,251-253 Tam Trinh,,20.988894,105.863371,,
hanoi_stop_738814309,Bệnh viện Thanh Nhàn,,21.002879,105.859178,,
hanoi_stop_738814363,Chung cư A3B 92 Thanh Nhàn,,21.002963,105.853125,,
hanoi_stop_10036774718,Cổng Parabol Đại học Bách Khoa (cột trước),,21.004506,105.841557,,
hanoi_stop_738813771,101A2 TT Trung Tự - Phạm Ngọc Thạch,,21.009805,105.835454,,
hanoi_stop_11527354914,88 Phạm Ngọc Thạch,,21.006912,105.831864,,
hanoi_stop_8766627150,54-56 Thái Hà,,21.010667,105.822418,,
hanoi_stop_738814536,176 Thái Hà,,21.013033,105.820046,,
hanoi_stop_738813514,Rạp chiếu phim Quốc Gia - Thái Hà,,21.016179,105.815629,,
hanoi_stop_738813690,Đối diện Đài Truyền hình Hà Nội - 5 Huỳnh Thúc Kháng,,21.017137,105.814038,,
hanoi_stop_738815746,20 Huỳnh Thúc Kháng,,21.019240,105.809645,,
hanoi_stop_738815328,89 Nguyễn Chí Thanh - KTX Đại học Luật,,21.021399,105.809294,,
hanoi_stop_738814414,73 Nguyễn Chí Thanh - Đối diện Khách sạn Bảo Sơn,,21.023904,105.810722,,
hanoi_stop_738814805,Ngõ 1072 Đê La Thành,,21.027408,105.809379,,
hanoi_stop_738813553,Ga Cầu Giấy - Thủ Lệ 02,,21.029257,105.803764,,
hanoi_stop_8218246214,148-150 Cầu Giấy,,21.033009,105.798461,,
hanoi_stop_8766627151,Ga Chùa Hà,,21.035021,105.794591,,
hanoi_stop_8766627152,370 Cầu Giấy,,21.035899,105.791805,,
hanoi_stop_8766627153,Học viện Báo chí và Tuyên truyền - 36 Xuân Thủy,,21.036550,105.788475,,
hanoi_stop_11515782291,Chợ Xanh,,21.036703,105.786123,,
hanoi_stop_8766627154,144 Xuân Thủy,,21.036810,105.782860,,
hanoi_stop_5485775799,Đối diện Đại học Thương mại - 6 Hồ Tùng Mậu (cột sau),,21.037837,105.774438,,
hanoi_stop_8766627155,Đối diện Đài truyền hình Công an nhân dân,,21.037170,105.771268,,
hanoi_stop_8766627156,Nhà CT2B Khu đô thị Mỹ Đình,,21.031924,105.769265,,
hanoi_stop_13254325489,32 Hồ Tùng Mậu,,21.036779,105.778757,,
hanoi_stop_8766627157,Cung Điền kinh Mỹ Đình,,21.028018,105.763509,,
hanoi_stop_8865361307,Nhà CT5-ĐN1 Khu đô thị Mỹ Đình 1,,21.028857,105.765928,,
hanoi_stop_8766627159,Trung tâm Huấn luyện và Thi đấu Thể dục thể thao,,21.028285,105.763934,,
hanoi_stop_8865361292,Đối diện nhà CT5-ĐN1 Khu đô thị Mỹ Đình 1,,21.028461,105.765863,,
hanoi_stop_8766627160,Đối diện nhà CT2B Khu đô thị Mỹ Đình,,21.031283,105.769481,,
hanoi_stop_8766627161,Đối diện Trung ương Hội Kế hoạch hóa Gia đình Việt Nam,,21.035949,105.770972,,
hanoi_stop_2545040669,Ga Lê Đức Thọ,,21.037931,105.772917,,
hanoi_stop_2545040560,Số 9 Hồ Tùng Mậu,,21.036462,105.778293,,
hanoi_stop_738813535,Tòa nhà Indochina Tower - Đối diện ĐHQG Hà Nội,,21.036548,105.782044,,
hanoi_stop_11672588051,Siêu thị điện máy PiCo - 173 Xuân Thủy,,21.036482,105.785234,,
hanoi_stop_738815665,79 Xuân Thủy (Đối diện Học viện Báo chí và Tuyên truyền),,21.036322,105.788397,,
hanoi_stop_8766627162,331 Cầu Giấy,,21.035700,105.791762,,
hanoi_stop_11518476666,Đối diện tòa nhà Discovery Complex,,21.034777,105.794418,,
hanoi_stop_4914822521,165 Cầu Giấy - Bưu điện Cầu Giấy,,21.032625,105.798518,,
hanoi_stop_738813636,Điểm trung chuyển Cầu Giấy - GTVT 02,,21.028583,105.803835,,
hanoi_stop_8766627163,989-991 Đê La Thành,,21.027566,105.808903,,
hanoi_stop_5059726290,Đối diện Đại học Luật Hà Nội - Nguyễn Chí Thanh,,21.022244,105.809398,,
hanoi_stop_5059731444,57A Huỳnh Thúc Kháng,,21.019060,105.809690,,
hanoi_stop_738815716,7 Huỳnh Thúc Kháng - Cạnh Đài Truyền hình Hà Nội,,21.017171,105.813547,,
hanoi_stop_738814515,Trạm biến áp F3 Thành Công - 171 Thái Hà,,21.015794,105.815987,,
hanoi_stop_738814870,131 Thái Hà,,21.013119,105.819701,,
hanoi_stop_738814398,3 Thái Hà - Bể bơi Thái Hà,,21.010009,105.822943,,
hanoi_stop_738814514,251 Chùa Bộc,,21.008702,105.825624,,
hanoi_stop_738815806,19-21 Chùa Bộc,,21.006583,105.830204,,
hanoi_stop_738814370,Siêu thị Uni mart - 8 Phạm Ngọc Thạch,,21.008022,105.833578,,
hanoi_stop_738815825,B10 Tập thể Kim Liên (Đối diện ngõ 46B Phạm Ngọc Thạch),,21.009049,105.834773,,
hanoi_stop_738813696,65 Đại Cồ Việt,,21.007910,105.846730,,
hanoi_stop_738815089,Đối diện 58 Lê Thanh Nghị (Qua Ngã 4 Lê Thanh Nghị - Tạ Quang Bửu),,21.003320,105.848621,,
hanoi_stop_8757875257,263 Thanh Nhàn,,21.002933,105.852819,,
hanoi_stop_738814039,Đối diện Bệnh viện Thanh Nhàn,,21.002738,105.859132,,
hanoi_stop_8741080045,18 Tam Trinh,,20.992175,105.862388,,
hanoi_stop_738815021,Đối diện 303 Tam Trinh,,20.987618,105.863355,,
hanoi_stop_8766627166,Đối diện 411 Tam Trinh,,20.984007,105.863755,,
hanoi_stop_8772715674,Chợ đầu mối phía Nam,,20.983549,105.862291,,
hanoi_stop_738814833,Cổng bệnh viện Quân y 108 - Đối diện 2E Trần Hưng Đạo,,21.018431,105.860726,,
hanoi_stop_7821910475,Đối diện khu tập thể 15C Trần Khánh Dư (chiều Trần Khánh Dư đi cầu Chương Dương),,21.022120,105.861494,,
hanoi_stop_738815164,Trước phố Chương Dương Độ (đối diện 198 Trần Quang Khải),,21.028194,105.858372,,
hanoi_stop_738813402,162 Nguyễn Văn Cừ (cột trước),,21.042526,105.871007,,
hanoi_stop_8209169360,358-360 Nguyễn Văn Cừ,,21.045619,105.875946,,
hanoi_stop_446043802,436-438 Nguyễn Văn Cừ,,21.047074,105.878936,,
hanoi_stop_8919509902,548 Nguyễn Văn Cừ,,21.048407,105.881766,,
hanoi_stop_7178789816,18-20 Ngô Gia Tự,,21.056587,105.889619,,
hanoi_stop_8772715696,170-172 Ngô Gia Tự,,21.061163,105.894087,,
hanoi_stop_7178810616,316-318 Ngô Gia Tự,,21.064560,105.897369,,
hanoi_stop_8919509903,368 Ngô Gia Tự - Ngã 3 đường vào công An quận Long Biên,,21.068328,105.900978,,
hanoi_stop_7178795558,608 - 610 Ngô Gia Tự - gần đường lên Cầu Đuống,,21.074368,105.906928,,
hanoi_stop_8919509904,Cạnh đường vào Phù Đổng - 44 Hà Huy Tập,,21.079587,105.911636,,
hanoi_stop_8919509905,270-272 Hà Huy Tập,,21.083909,105.915949,,
hanoi_stop_8919509906,Công ty Giày Yên Viên - 488 Hà Huy Tập,,21.088146,105.920165,,
hanoi_stop_8919509907,664 Hà Huy Tập,,21.092583,105.924525,,
hanoi_stop_8919509908,38 Dốc Lã,,21.095661,105.927418,,
hanoi_stop_9032745589,Xưởng Vẽ Tranh Sơn Dầu Mai Hồng,,21.095435,105.930455,,
hanoi_stop_9032745591,Cửa Hàng Vải Dũng Thúy,,21.089106,105.937903,,
hanoi_stop_9032745594,Trạm biến áp số 10,,21.085602,105.939730,,
hanoi_stop_9032745595,Bưu Điện Xã Ninh Hiệp,,21.083501,105.940162,,
hanoi_stop_9032745598,Xóm 8 - Gần đường vào Đình Xuyên,,21.080412,105.939565,,
hanoi_stop_9032745600,Khu Sinh Thái Cánh Buồm Xanh,,21.076107,105.943388,,
hanoi_stop_9032745602,Qua đối diện cổng Khu công nghiệp Ninh Hiệp 50m,,21.068359,105.951145,,
hanoi_stop_9032745603,Hầm Chui Quốc Lộ 1B - Phù Đổng,,21.062476,105.955489,,
hanoi_stop_9032745606,Qua đường vào Trường Trung học cơ sở Phù Đổng,,21.061728,105.966627,,
hanoi_stop_9032745608,"Qua lối vào Thôn Đổng Viên, xã Phù Đổng 20m",,21.061345,105.972733,,
hanoi_stop_7178800459,285 Ngô Gia Tự,,21.061221,105.893640,,
hanoi_stop_7178788658,Bưu cục Long Biên - 79 Ngô Gia Tự,,21.058058,105.890450,,
hanoi_stop_481837228,549 Nguyễn Văn Cừ (cột trước),,21.049762,105.883565,,
hanoi_stop_5321696621,135 Nguyễn Văn Cừ,,21.042302,105.870497,,
hanoi_stop_8772715681,Vườn hoa Trần Quang Khải (Đối diện BQL Xây dựng công trình Công ích),,21.025281,105.859646,,
hanoi_stop_7589589146,Trạm trung chuyển xe buýt Trần Khánh Dư (Khu đón khách),,21.022188,105.861202,,
hanoi_stop_8209169367,Cty Cầu 5 Thăng Long - 307 Nguyễn Văn Cừ,,21.045604,105.875409,,
hanoi_stop_8835043628,162 Trần Quang Khải - Viện Quy hoạch Thủy Lợi,,21.031945,105.856185,,
hanoi_stop_9032745607,"Trước lối vào thôn Đổng Viên, xã Phù Đổng 10m",,21.061497,105.972592,,
hanoi_stop_9032745605,Trường Trung học cơ sở Phù Đổng,,21.061918,105.965681,,
hanoi_stop_9032745604,Hầm Chui Quốc Lộ 1B - Phù Đổng,,21.062561,105.956132,,
hanoi_stop_9032745601,Qua cổng Khu công nghiệp Ninh Hiệp 70m,,21.069656,105.950037,,
hanoi_stop_9032745599,Khu Sinh Thái Cánh Buồm Xanh,,21.076646,105.943038,,
hanoi_stop_9032745597,Xóm 8 - xã Ninh Hiệp,,21.081422,105.939884,,
hanoi_stop_9032745596,Đối Diện Bưu Điện Xã Ninh Hiệp,,21.082974,105.940261,,
hanoi_stop_9032745593,Trước kiot số 19B - Chợ vải Ninh Hiệp,,21.086399,105.939679,,
hanoi_stop_9032745592,Cuối Chợ Vải Ninh Hiệp,,21.088936,105.938265,,
hanoi_stop_9032745590,Trạm biến áp Trùng Quán 1,,21.095191,105.930980,,
hanoi_stop_6546414572,Số 1 Dốc Lã,,21.096501,105.928060,,
hanoi_stop_9032745610,Đối diện 666 Hà Huy Tập,,21.092741,105.924446,,
hanoi_stop_9032745611,Đối diện Công ty Giày Yên Viên,,21.087763,105.919554,,
hanoi_stop_9032745612,Đối diện 274 Hà Huy Tập,,21.084019,105.915908,,
hanoi_stop_9032745613,115 Hà Huy Tập,,21.080468,105.912291,,
hanoi_stop_7178811680,1095 Ngô Gia Tự,,21.074461,105.906548,,
hanoi_stop_7178793083,713-715 Ngô Gia Tự,,21.068218,105.900364,,
hanoi_stop_7178803638,505-507 Ngô Gia Tự,,21.065073,105.897362,,
hanoi_stop_8831817107,E3.1 Điểm trung chuyển Long Biên,,21.041137,105.849589,,
hanoi_stop_8807115903,Đối diện khu nhà D3 và D6 - Chung cư Kim Chung,,21.124081,105.774855,,
hanoi_stop_8807115905,Vịnh xén hè cho xe buýt (số 1 chiều về Hà Nội),,21.124340,105.799156,,
hanoi_stop_8807115906,Vịnh xén hè cho xe buýt (số 2 chiều về Hà Nội),,21.124387,105.804252,,
hanoi_stop_8807115907,Vịnh xén hè cho xe buýt (số 3 chiều về Hà Nội),,21.124364,105.809859,,
hanoi_stop_8807115908,Vịnh xe buýt đường Hoàng Sa - gần điểm mở đi đường 6 cây,,21.124316,105.820034,,
hanoi_stop_6742138880,Qua ngã tư Quốc lộ 2 - Võ Nguyên Giáp,,21.119624,105.826840,,
hanoi_stop_8807115909,Đối diện ngõ 689 Lạc Long Quân,,21.079012,105.812813,,
hanoi_stop_8807115910,CT13B Khu đô thị Nam Thăng Long,,21.074734,105.810556,,
hanoi_stop_8741301517,Bệnh viện Tim Hà Nội cơ sở 2,,21.068113,105.807546,,
hanoi_stop_8741301518,Đối diện 41 Võ Chí Công (Cửa hàng lập 4 mùa),,21.061618,105.804253,,
hanoi_stop_8741301519,Nhà hàng Ngọc Được 3 - Võ Chí Công,,21.056069,105.804209,,
hanoi_stop_8741301520,Cầu vượt đi bộ Võ Chí Công,,21.049831,105.804439,,
hanoi_stop_8741294706,Trường Quốc tế Hà Nội - 48 Liễu Giai,,21.033222,105.813614,,
hanoi_stop_738814364,116 A5 Tập thể Giảng Võ - Kim Mã,,21.030661,105.818837,,
hanoi_stop_738813748,211 Kim Mã,,21.031378,105.823250,,
hanoi_stop_1008753034,92-94 Bà Triệu,,21.019170,105.849429,,
hanoi_stop_738815565,180-182 Bà Triệu,,21.015878,105.849126,,
hanoi_stop_738813898,Hồ Thanh Nhàn,,21.007017,105.854564,,
hanoi_stop_738815214,94 Võ Thị Sáu,,21.003678,105.854924,,
hanoi_stop_738814794,386-388 Minh Khai,,20.996685,105.863805,,
hanoi_stop_7056039276,Viện Kinh tế và Kỹ thuật Dệt may - 478 Minh Khai,,20.997704,105.866957,,
hanoi_stop_8807115911,Phòng Cảnh sát Phòng cháy chữa cháy,,21.072396,105.809566,,
hanoi_stop_11553653863,UBND Phường Cống Vị,,21.037731,105.809494,,
hanoi_stop_11553653864,Chợ Cống Vị,,21.037513,105.814149,,
hanoi_stop_11527164033,69 Lý Thường Kiệt,,21.024790,105.845405,,
hanoi_stop_6257442385,59 Lý Thường Kiệt,,21.024047,105.847852,,
hanoi_stop_8807115904,Cổng khu công nghiệp Bắc Thăng Long,,21.123874,105.776575,,
hanoi_stop_8807115914,259 Minh Khai,,20.997098,105.863895,,
hanoi_stop_738815117,Công viên Tuổi Trẻ,,21.003315,105.855019,,
hanoi_stop_738813833,46 Võ Thị Sáu,,21.006467,105.854779,,
hanoi_stop_8807115915,319 Phố Huế,,21.010086,105.851620,,
hanoi_stop_738815889,149 Phố Huế,,21.014307,105.851777,,
hanoi_stop_5061383221,25A-25B Phố Huế,,21.018869,105.851787,,
hanoi_stop_738815823,Công viên Lê nin - Đối diện 35 Trần Phú,,21.031061,105.839366,,
hanoi_stop_12078321346,Đối diện Bệnh viện Xanh pôn - 60 Trần Phú (Bộ Tư pháp),,21.031718,105.835941,,
hanoi_stop_5068125721,140 Sơn Tây,,21.032705,105.829568,,
hanoi_stop_8807115916,240 Kim Mã,,21.031755,105.824055,,
hanoi_stop_8900275038,Ngã ba Kim Mã - Vạn Bảo,,21.030818,105.817878,,
hanoi_stop_11553653865,Đối diện Chợ Cống Vị,,21.037966,105.813508,,
hanoi_stop_11553653866,Đối diện UBND Phường Cống Vị,,21.037725,105.808517,,
hanoi_stop_8741294712,Cầu vượt đi bộ Võ Chí Công,,21.050544,105.804757,,
hanoi_stop_8741294713,Đối diện Nhà hàng Ngọc Được 3 - Võ Chí Công,,21.055715,105.804687,,
hanoi_stop_8741294714,41 Võ Chí Công (Cửa hàng Lập 4 mùa),,21.061335,105.804654,,
hanoi_stop_8741294715,Khu liên cơ quan sở ngành - 258 Võ Chí Công,,21.068314,105.808242,,
hanoi_stop_8807115917,Đối diện Phòng Cảnh sát Phòng cháy chữa cháy,,21.071614,105.809793,,
hanoi_stop_8807115918,Đối diện Khu đô thị Nam Thăng Long,,21.074557,105.811063,,
hanoi_stop_8807115919,Trước 50m ngõ 689 Lạc Long Quân,,21.078659,105.813240,,
hanoi_stop_8807115920,Ngã 4 cầu vượt Quốc lộ 5 - Võ Nguyên Giáp,,21.120126,105.827481,,
hanoi_stop_8807115921,Vịnh xe buýt đường Hoàng Sa - Gần điểm mở đi đường 6 cây,,21.124855,105.820166,,
hanoi_stop_8807115922,Vịnh xén hè cho xe buýt (số 3 chiều đi Bắc Thăng Long),,21.124927,105.809844,,
hanoi_stop_8807115923,Vịnh xén hè cho xe buýt (số 2 chiều đi Bắc Thăng Long),,21.124921,105.804303,,
hanoi_stop_8807115924,Vịnh xén hè cho xe buýt (số 1 chiều đi Bắc Thăng Long),,21.124983,105.799115,,
hanoi_stop_8807115925,Đối diện cổng Khu công nghiệp Bắc Thăng Long,,21.125007,105.779005,,
hanoi_stop_8807115926,Khu nhà D6 và D3 - Chung cư Kim Chung,,21.127209,105.774198,,
hanoi_stop_13702888618,Tòa nhà Imperia Garden 2 - 423 Minh Khai (cột trước),,20.998363,105.867211,,
hanoi_stop_8808907343,Gần ngã tư Phạm Hùng - Đình Thôn (cột sau),,21.022964,105.778517,,
hanoi_stop_7622858413,Nhà CT5 KĐT Sông Đà Mỹ Đình - Phạm Hùng,,21.018515,105.781161,,
hanoi_stop_8808907344,"Nhà hàng Hàn Quốc, nhà CT4 ĐN KĐT Mỹ Đình",,21.016654,105.780491,,
hanoi_stop_8808907345,Tường rào Trạm y tế Mễ Trì,,21.012478,105.774606,,
hanoi_stop_8808907346,Xóm La - Đại Mỗ,,21.007630,105.759908,,
hanoi_stop_8808907347,Đường vào Trung học phổ thông Đại Mỗ,,21.009130,105.752594,,
hanoi_stop_8808907348,Trụ sở Bộ tư lệnh Cảnh sát biển,,21.010052,105.745154,,
hanoi_stop_8808907349,Đối diện Thiên đường Bảo Sơn,,21.011227,105.728657,,
hanoi_stop_8808907350,Qua lối rẽ vào UBND xã An Khánh,,21.011714,105.719331,,
hanoi_stop_8808907351,Chùa Bà - An Khánh,,21.010630,105.710857,,
hanoi_stop_8808907361,Trước 50m lối vào UBND huyện Hoài Đức,,21.008146,105.700212,,
hanoi_stop_8808907362,Cầu vượt Song Phương,,21.005509,105.685929,,
hanoi_stop_8808907363,Làng văn hóa thôn Quyết Tiến (trước 200m cầu Sông Đáy),,21.004017,105.667943,,
hanoi_stop_8808907367,Đối diện Công ty Bê tông Việt Mỹ,,21.044225,105.643752,,
hanoi_stop_8808907368,Trước ngã tư Hữu Bằng-Dị Nậu 30m,,21.045082,105.626445,,
hanoi_stop_8808907369,Làng nghề đồ gỗ mỹ nghệ Thạch Thất,,21.045057,105.616081,,
hanoi_stop_8808907370,Tây Ninh xã Canh Nậu (chiều về),,21.044919,105.610244,,
hanoi_stop_8808907371,Đối diện khu Đồng Cháy Hương Ngải,,21.048390,105.603326,,
hanoi_stop_8808907403,Giáo xứ Phù Nghĩa (chiều đi Sơn Tây),,21.063545,105.578010,,
hanoi_stop_8808907404,Qua 50m đối diện Trạm bơm phố Cấm,,21.072550,105.574025,,
hanoi_stop_8808907405,Đối diện Công ty TNHH DL&TM Anh Dũng,,21.082923,105.567639,,
hanoi_stop_8808907406,Trước ngã tư Ngọc Lâu 200m,,21.090474,105.561997,,
hanoi_stop_8808907407,Qua đối diện ngã ba Cẩm Thanh 100m,,21.097288,105.555172,,
hanoi_stop_8808907408,Đối diện Công an huyện Phúc Thọ - Quốc lộ 32,,21.103086,105.550932,,
hanoi_stop_8808907409,Trạm y tế thị trấn Phúc Thọ,,21.104656,105.544532,,
hanoi_stop_8808907410,Đối diện hiệu sách nhân dân Phúc Thọ - Quốc lộ 32,,21.105937,105.540986,,
hanoi_stop_8808907411,Ngã tư Gạch - Thị trấn Phúc Thọ (Chiều đi Sơn Tây),,21.109421,105.534732,,
hanoi_stop_8808907412,Trường Hữu Nghị T78 - QL32,,21.118880,105.525656,,
hanoi_stop_8808907413,May Minh Phương - QL32,,21.124311,105.519970,,
hanoi_stop_8808907414,Cửa hàng xăng dầu số 14 - QL32,,21.130933,105.513029,,
hanoi_stop_9004787891,Đối diện Công an huyện Thạch Thất,,21.048795,105.583632,,
hanoi_stop_9004787893,Số 97 Đồng Cam,,21.051392,105.581914,,
hanoi_stop_9004787895,UBND huyện Thạch Thất (Chiều đi Sơn Tây),,21.055594,105.579199,,
hanoi_stop_9004787897,Ngã 3 thị trấn Liên Quan,,21.058990,105.575454,,
hanoi_stop_8945948101,Ngã 3 Chùa Thầy gần cầu vượt Sài Sơn,,21.003636,105.651507,,
hanoi_stop_11553653854,Đối diện Sunny Garden City,,21.013708,105.649699,,
hanoi_stop_11553653855,Đối diện Quỹ tín dụng Sài Sơn,,21.017499,105.648317,,
hanoi_stop_11553653858,BHXH huyện Thạch Thất,,21.057619,105.576489,,
hanoi_stop_8903312053,Gần cổng làng Phú Đô,,21.007421,105.767697,,
hanoi_stop_12118584182,Ngã ba Trường Tiểu học Sài Sơn A,,21.027321,105.643639,,
hanoi_stop_12206582475,Ngã ba Từ Đạo Hạnh,,21.019446,105.642769,,
hanoi_stop_12206582476,Chùa Một Mái,,21.024409,105.641218,,
hanoi_stop_8808913217,Đối diện cửa hàng xăng dầu số 14 - QL32,,21.130883,105.512663,,
hanoi_stop_8808913218,Đội quản lý giao thông 4 - QL32,,21.124388,105.519587,,
hanoi_stop_8808913219,Đối diện Trường Hữu Nghị T78 - QL32,,21.118081,105.526093,,
hanoi_stop_8808913220,Ngã tư Gạch - Thị trấn Phúc Thọ (Chiều đi Yên Nghĩa),,21.109195,105.534556,,
hanoi_stop_8808913221,Bưu điện Trung tâm Phúc Thọ - Quốc lộ 32,,21.105991,105.540105,,
hanoi_stop_8808913222,Đối diện trạm y tế huyện Phúc Thọ - Quốc lộ 32,,21.104289,105.544678,,
hanoi_stop_8808913223,Công an huyện Phúc Thọ - Quốc lộ 32,,21.102796,105.551047,,
hanoi_stop_8808913224,Trước ngã ba Cẩm Thanh 50m,,21.097100,105.554957,,
hanoi_stop_8808913225,Qua ngã tư Ngọc Lâu 200m,,21.090318,105.561855,,
hanoi_stop_8808913226,Cổng làng Đại Đồng,,21.082484,105.567576,,
hanoi_stop_8808913227,Trước 20m Trạm bơm phố Cấm,,21.072924,105.573301,,
hanoi_stop_8808913228,Giáo xứ Phù Nghĩa (chiều đi Yên Nghĩa),,21.063878,105.577922,,
hanoi_stop_8808913232,Khu Đồng Cháy Hương Ngải,,21.048061,105.603385,,
hanoi_stop_8808913233,Tây Ninh xã Canh Nậu (chiều đi),,21.044803,105.610626,,
hanoi_stop_8808913234,Đối diện làng nghề đồ gỗ mỹ nghệ Thạch Thất,,21.044821,105.615553,,
hanoi_stop_8808913235,Qua ngã tư Hữu Bằng-Dị Nậu 30m,,21.044856,105.626457,,
hanoi_stop_8808913236,Khu công nghệ liên hiệp Phúc Thọ,,21.044055,105.643391,,
hanoi_stop_8808913242,Song Phương - Hoài Đức,,21.003772,105.678826,,
hanoi_stop_8808913243,Đê Phương Viên - Song Phương,,21.006566,105.698446,,
hanoi_stop_8808913244,Khu đô thị Nam An Khánh,,21.009561,105.711470,,
hanoi_stop_8808913247,Đường vào UBND phường Tây Mỗ,,21.009096,105.746287,,
hanoi_stop_8808913248,Qua ngã ba làng Miêu Nha,,21.008192,105.751333,,
hanoi_stop_8808913249,Lối vào Trung học phổ thông Đại Mỗ,,21.006662,105.758493,,
hanoi_stop_8808913251,Công ty điện lực Nam Từ Liêm,,21.013108,105.776108,,
hanoi_stop_8808913252,Ngã 3 Phạm Hùng - Mễ Trì,,21.016524,105.780940,,
hanoi_stop_7617390958,Đối diện nhà CT5 KĐT Sông Đà Mỹ Đình - Phạm Hùng,,21.018854,105.781516,,
hanoi_stop_7617390959,Qua ngã 3 Phạm Hùng - Đình Thôn (Hướng đi Phạm Văn Đồng),,21.022977,105.779025,,
hanoi_stop_7617390960,Đối diện Bến xe khách Mỹ Đình - Phạm Hùng (cột trước),,21.027022,105.779269,,
hanoi_stop_11553653857,Agribank Thạch Thất,,21.057362,105.576616,,
hanoi_stop_9004787892,Công an huyện Thạch Thất,,21.048921,105.583245,,
hanoi_stop_11553653860,Quỹ tín dụng Sài Sơn,,21.017532,105.648093,,
hanoi_stop_8946656580,"Thôn Quảng Yên, Yên Sơn, Quốc Oai",,21.002228,105.658023,,
hanoi_stop_11534004853,"Xã Vân Côn, Hoài Đức",,21.002958,105.668709,,
hanoi_stop_11553653861,Sunny Garden City,,21.013887,105.649550,,
hanoi_stop_11553653862,Cổng làng Phú Đô,,21.009034,105.770407,,
hanoi_stop_9004787898,Cầu Đồng Mô II,,21.059270,105.575445,,
hanoi_stop_9004787896,UBND huyện Thạch Thất (Chiều đi Yên Nghĩa),,21.055730,105.578778,,
hanoi_stop_12118584181,Ngã ba Trường Tiểu học Sài Sơn A,,21.027478,105.643581,,
hanoi_stop_12206582477,Đối diện Cổng sau Chùa Thầy,,21.024433,105.640976,,
hanoi_stop_12206582478,Ngã ba Từ Đạo Hạnh,,21.019368,105.642651,,
hanoi_stop_8813408787,Đối diện Bệnh viện đa khoa y học cổ truyền - Phạm Hùng,,21.034366,105.780539,,
hanoi_stop_8813408788,Cầu Yên Hòa - Đối diện 1166 đường Láng,,21.027023,105.798835,,
hanoi_stop_8813408789,Đối diện 1014 Đường Láng - Cầu Cót,,21.023078,105.799247,,
hanoi_stop_8813408790,Đối diện 794 Đường Láng,,21.017918,105.802847,,
hanoi_stop_738814575,Đối diện 608 Đường Láng,,21.013567,105.806854,,
hanoi_stop_738813341,Đối diện Chợ Láng Hạ B - 564 đường Láng,,21.012301,105.808633,,
hanoi_stop_738813645,Đối diện 498 Đường Láng,,21.010133,105.811817,,
hanoi_stop_8813408792,Đối diện 220 Đường Láng,,21.005919,105.816444,,
hanoi_stop_7056032822,Platform dành riêng cho xe buýt trước nhà 45 Đường Láng,,21.003591,105.818536,,
hanoi_stop_8813408793,223-225 Trường Chinh,,21.001422,105.825797,,
hanoi_stop_8813408794,Đối diện 196 Trường Chinh,,21.000132,105.830024,,
hanoi_stop_8813408795,83A Trường Chinh,,20.998274,105.838282,,
hanoi_stop_738813232,196 Giải Phóng - Ngân hàng Nông nghiệp & PTNT Chi nhánh Nam Hà Nội,,20.993159,105.841037,,
hanoi_stop_8813408796,352 Giải Phóng,,20.987629,105.840974,,
hanoi_stop_8813408797,Đối diện 807 Giải Phóng,,20.984342,105.840899,,
hanoi_stop_13697659016,Đối diện Bến xe Giáp Bát - Giải Phóng (cột sau),,20.979413,105.840831,,
hanoi_stop_11968782796,Bến xe Giáp Bát,,20.980173,105.841544,,
hanoi_stop_8205232235,Toyota Giải Phóng - 807 Giải Phóng,,20.984782,105.841227,,
hanoi_stop_8205232236,649 Giải Phóng,,20.989328,105.841267,,
hanoi_stop_8895558431,487 Giải Phóng,,20.993419,105.841346,,
hanoi_stop_8813408798,86 Trường Chinh,,20.998732,105.838486,,
hanoi_stop_738815257,Đối diện Bảo tàng phòng không không quân - Trường Chinh,,21.000225,105.831159,,
hanoi_stop_5485887885,Platform dành riêng cho xe buýt trước nhà 604 Trường Chinh,,21.002899,105.821704,,
hanoi_stop_738814593,Platform dành riêng cho xe buýt trước nhà 80 Đường Láng,,21.003955,105.818678,,
hanoi_stop_8813408799,220 Đường Láng - Trường Đảng Lê Hồng Phong,,21.005965,105.816685,,
hanoi_stop_8813408800,470 Đường Láng,,21.009864,105.812859,,
hanoi_stop_738815858,Chợ Láng Hạ A - 572 đường Láng,,21.013139,105.808048,,
hanoi_stop_8813408801,794 Đường Láng,,21.018160,105.803024,,
hanoi_stop_738815462,1014 Đường Láng,,21.023409,105.799316,,
hanoi_stop_8813408802,1178 Đường Láng,,21.027244,105.799495,,
hanoi_stop_7298159285,Bệnh viện Đa khoa Y học cổ truyền - 6 Phạm Hùng,,21.034464,105.779948,,
hanoi_stop_8813408803,Đối diện Bưu cục Thăng Long,,21.031213,105.779410,,
hanoi_stop_738815036,220 Trần Duy Hưng,,21.007272,105.794800,,
hanoi_stop_8821681976,Ngã 4 Phạm Hùng - Khuất Duy Tiến (Đối diện Trung tâm Hội nghị Quốc gia),,21.006909,105.791250,,
hanoi_stop_8821681977,Qua 130m Doanh trại Bộ chỉ huy quân sự HN - 99A Phạm Hùng,,21.012814,105.786475,,
hanoi_stop_8821681978,Tòa nhà Landmark 72 - đường Phạm Hùng,,21.015541,105.784270,,
hanoi_stop_738813730,Hè gần hầm chui cho người đi bộ qua đường khu vực cầu Mai Dịch (trước cổng trường ĐHNN 70m),,21.038777,105.781131,,
hanoi_stop_8898755901,Tòa nhà Bắc Hà,,21.043782,105.781401,,
hanoi_stop_8821681983,Qua ngã 3 Hải Bối-Vĩnh Ngọc 300m,,21.117120,105.784206,,
hanoi_stop_11533262495,Đối diện Công ty TNHH Sato,,21.124140,105.776285,,
hanoi_stop_9009781172,Đối diện Trung tâm giao dịch Viettel (Đại Đồng - Đại Mạch),,21.119933,105.770495,,
hanoi_stop_9009781180,Qua đối diện ngã ba Trung tâm Điều dưỡng,,21.121495,105.763833,,
hanoi_stop_11533262496,Đối diện Nhà máy Bia Hà Nội HABECO,,21.135044,105.759627,,
hanoi_stop_11533262497,Đối diện cổng làng Nam thôn Yên Nhân,,21.145161,105.759456,,
hanoi_stop_11533262498,Ngã 3 Hồ 3 góc (gần UBND xã Tiền Phong),,21.150180,105.757412,,
hanoi_stop_9006708311,Hội Trường Đa Năng Xã Tiền Phong,,21.150770,105.757068,,
hanoi_stop_9006708309,Công Ty TNHH Xây Dựng 305,,21.156142,105.761800,,
hanoi_stop_13697659009,Đối diện cổng làng Hậu Đông - KĐT Hà Phong,,21.158168,105.761705,,
hanoi_stop_13697659010,Đối diện lô 3E8 - KĐT Hà Phong,,21.163581,105.761063,,
hanoi_stop_8766627165,Sân vận động Bách Khoa - Lê Thanh Nghị,,21.002835,105.847614,,
hanoi_stop_738813884,B13 Ký túc xá Bách Khoa,,21.006193,105.847306,,
hanoi_stop_8822946769,25 Lý Thường Kiệt,,21.021945,105.854785,,
hanoi_stop_8831817110,E1.3 Điểm trung chuyển Long Biên,,21.041376,105.849624,,
hanoi_stop_8822946771,Qua nút giao Hàng Than 50m,,21.044038,105.847111,,
hanoi_stop_8822946772,Trước nút giao Cửa Bắc 30m,,21.046410,105.844156,,
hanoi_stop_4559411156,Trước đường vào bãi An Dương,,21.050229,105.840688,,
hanoi_stop_8822946773,152-154 Nghi Tàm,,21.054166,105.837376,,
hanoi_stop_8822946774,284 Nghi Tàm,,21.057053,105.835781,,
hanoi_stop_12176717405,Trước ngõ 34 Âu Cơ 20m,,21.059794,105.833912,,
hanoi_stop_12176717406,106 Âu Cơ,,21.062477,105.832425,,
hanoi_stop_738815168,Chợ hoa Quảng An,,21.066166,105.828162,,
hanoi_stop_8822946776,242 Âu Cơ (Ngã 3 Xuân Diệu - Quảng Bá),,21.069804,105.826228,,
hanoi_stop_738813415,286 Âu Cơ,,21.073608,105.825080,,
hanoi_stop_738815293,Đối diện Đình Nhật Tân,,21.076067,105.822214,,
hanoi_stop_738813803,468 Âu Cơ,,21.080459,105.818708,,
hanoi_stop_8822946786,8 An Dương Vương,,21.084201,105.816841,,
hanoi_stop_8822946787,Trạm Thú y Tây Hồ 197 An Dương Vương,,21.090073,105.811598,,
hanoi_stop_8822946788,Đối diện UBND Phường Phú Thượng,,21.089878,105.807867,,
hanoi_stop_8822946789,Đối diện 327 An Dương Vương,,21.089748,105.802813,,
hanoi_stop_8822946790,Làng Thượng Thụy,,21.089449,105.797044,,
hanoi_stop_8822946791,Đình Nhật Tảo,,21.090788,105.789050,,
hanoi_stop_8822946792,Trường Tiểu Học Đông Ngạc A,,21.092062,105.782976,,
hanoi_stop_8822946793,Trường Trung học cơ sở Đông Ngạc A,,21.093656,105.778580,,
hanoi_stop_8822946794,Đối diện Đình Làng Liên Ngạc,,21.090571,105.777509,,
hanoi_stop_8822946800,Đình làng Liên Ngạc,,21.090676,105.777654,,
hanoi_stop_8822946801,Ngã ba dốc Kẻ Chèm,,21.093492,105.778506,,
hanoi_stop_8822946802,Trường Tiểu học Đông Ngạc A,,21.091838,105.783059,,
hanoi_stop_8822946803,Đình Nhật Tảo,,21.090592,105.789026,,
hanoi_stop_8822946804,Làng Thượng Thụy,,21.089225,105.797065,,
hanoi_stop_8822946805,327-329 An Dương Vương,,21.089562,105.802847,,
hanoi_stop_8822946806,UBND phường Phú Thượng,,21.089700,105.807604,,
hanoi_stop_8822946807,197 An Dương Vương,,21.089871,105.811577,,
hanoi_stop_8822946808,Đối diện ngõ 58 An Dương Vương,,21.086874,105.815650,,
hanoi_stop_963363896,523 Âu Cơ,,21.080362,105.818478,,
hanoi_stop_738813432,Đối diện UBND phường Nhật Tân,,21.076249,105.821571,,
hanoi_stop_738813372,325 Âu Cơ,,21.073472,105.824870,,
hanoi_stop_738814378,215 Âu Cơ,,21.065998,105.828093,,
hanoi_stop_12176717407,111 Âu Cơ,,21.062990,105.831977,,
hanoi_stop_12151587819,27-29 Âu Cơ,,21.060259,105.833237,,
hanoi_stop_8822946811,197 Nghi Tàm,,21.056825,105.835605,,
hanoi_stop_8822946812,115-117 Nghi Tàm,,21.054102,105.837156,,
hanoi_stop_738815149,Trường Mạc Đĩnh Chi,,21.048940,105.841423,,
hanoi_stop_5561075722,Qua nút giao Cửa Bắc 120m,,21.046221,105.844166,,
hanoi_stop_738813307,Trước nút giao Hàng Than 70m,,21.043873,105.847112,,
hanoi_stop_8822946813,22C Hàng Lược,,21.037281,105.848221,,
hanoi_stop_8822946814,56 Hàng Cân,,21.034114,105.849826,,
hanoi_stop_738813822,24A Bà Triệu,,21.025123,105.851390,,
hanoi_stop_738815312,58B Bà Triệu,,21.021962,105.850346,,
hanoi_stop_8829926851,KCN Bắc Thăng Long - Km 0+800 Cao tốc BTL-NB,,21.119564,105.783156,,
hanoi_stop_8900644425,126 Phạm Văn Đồng,,21.043780,105.780817,,
hanoi_stop_8829926852,9 Phạm Văn Đồng,,21.039462,105.780592,,
hanoi_stop_8829926853,Nhà CT5-D KĐT Mỹ Đình - Phạm Hùng,,21.014706,105.784227,,
hanoi_stop_8829926854,Bảo tàng Hà Nội - Phạm Hùng,,21.011267,105.787037,,
hanoi_stop_8829926855,Ngã 4 Phạm Hùng - Khuất Duy Tiến (Trung tâm Hội nghị Quốc gia),,21.006781,105.790656,,
hanoi_stop_738813809,Đối diện 220 Trần Duy Hưng,,21.006845,105.795000,,
hanoi_stop_13697659012,Lô 3E8 - KĐT Hà Phong,,21.163525,105.760963,,
hanoi_stop_13697659013,Cổng làng Hậu Đông - KĐT Hà Phong,,21.157934,105.761794,,
hanoi_stop_9006708308,Đối diện Công Ty TNHH XD CN 305,,21.156733,105.761937,,
hanoi_stop_9006708310,UBND xã Tiền Phong,,21.151225,105.757815,,
hanoi_stop_11533397301,Qua Ngã 3 Hồ 3 góc (gần UBND xã Tiền Phong),,21.150393,105.756891,,
hanoi_stop_11533397302,Cổng làng Nam thôn Yên Nhân,,21.145621,105.759256,,
hanoi_stop_11533397303,Nhà máy bia Hà Nội HABECO,,21.135265,105.759481,,
hanoi_stop_9009781179,Qua ngã 3 Trung tâm điều dưỡng,,21.121229,105.763564,,
hanoi_stop_9009781173,Trung tâm giao dịch Viettel (Đại Đồng - Đại Mạch),,21.119681,105.770971,,
hanoi_stop_8218246202,Đối diện Trường Cao đẳng Điện tử - Điện lạnh Hà Nội,,21.037005,105.797947,,
hanoi_stop_738815754,Bảo tàng dân tộc học Việt Nam - Nguyễn Văn Huyên,,21.040840,105.797799,,
hanoi_stop_9730350044,Chung cư Học viện Quốc phòng - Đối diện 33 Xuân Tảo,,21.050982,105.797865,,
hanoi_stop_11524504075,Đối diện Trung tâm Samsung R&D,,21.062810,105.791858,,
hanoi_stop_8900644420,Gần ngõ 1 Đỗ Nhuận,,21.067379,105.787185,,
hanoi_stop_8831420043,Qua ngã tư khu CN Thăng Long 100m (chiều Hà Nội - Nội Bài),,21.126532,105.781221,,
hanoi_stop_8831420044,Đối diện UBND xã Kim Chung- Km 2+230 Cao tốc BTL-NB,,21.132031,105.779255,,
hanoi_stop_8831420045,"Qua cầu chui dân sinh số 4 - đường vào thôn Nhuế, Km 11+200 (chiều Hà Nội đi sân bay Nội Bài)",,21.141760,105.778759,,
hanoi_stop_8831420046,Cầu Vân Trì- Km 4+560 Cao tốc BTL-NB,,21.153054,105.779289,,
hanoi_stop_8831420047,Trước 70m cầu vượt Ngã tư Nam Hồng Cao tốc BTL-NB,,21.158327,105.779490,,
hanoi_stop_8831420048,Công ty cơ khí Nam Hồng- Km 6+120 Cao tốc BTL-NB,,21.165241,105.779782,,
hanoi_stop_8831420049,Đối diện KCN Quang Minh (Melinh Plaza) - Km 8+100 Cao tốc BTL-NB,,21.186503,105.780679,,
hanoi_stop_8831420050,Nhà máy tấm lợp VitMetal- Km 8+850 Cao tốc BTL-NB,,21.192547,105.780811,,
hanoi_stop_8831420051,Soát vé cao tốc Bắc Thăng Long - Km 10+230 Cao tốc BTL-NB,,21.204933,105.779849,,
hanoi_stop_8831420052,Ngã tư Cao tốc TL- Phúc Yên - Km 11+700 Cao tốc BTL-NB,,21.214440,105.778794,,
hanoi_stop_8831420053,Qua 50m ngã 3 vào thôn Điền Xá - cao tốc BTL-NB (đường Võ Văn Kiệt),,21.218605,105.781842,,
hanoi_stop_8831420054,Đối diện nhà ga T2 sân bay Nội Bài - cao tốc BTL-NB (đường Võ Văn Kiệt),,21.214375,105.796412,,
hanoi_stop_8831420055,Đối diện nhà ga T1 sân bay Nội Bài - Văn phòng Nassco,,21.212560,105.802663,,
hanoi_stop_5404990957,Sảnh tầng 1 nhà ga T1,,21.214402,105.802536,,
hanoi_stop_13449454022,Đối diện Công viên Starlake Tây Hồ Tây,,21.054877,105.797861,,
hanoi_stop_8831420059,Qua 50m đối diện ngã 3 vào thôn Điền Xá - cao tốc BTL-NB (đường Võ Văn Kiệt),,21.219310,105.781747,,
hanoi_stop_8831420060,Qua ngã tư cao tốc TL - Phúc Yên - Km 11+380 Cao tốc BTL-NB,,21.215176,105.778445,,
hanoi_stop_8831420061,Soát vé cao tốc Bắc Thăng Long - Km 10+010 Cao tốc BTL-NB,,21.202451,105.779715,,
hanoi_stop_8831420062,Đối diện nhà máy tấm lợp VitMetal- Km 8+700 Cao tốc BTL-NB,,21.191207,105.780489,,
hanoi_stop_8831420063,KCN Quang Minh - Km 8+150 Cao tốc BTL-NB,,21.186222,105.780233,,
hanoi_stop_8831420064,Đối diện Công ty cơ khí Nam Hồng- Km 5+950 Cao tốc BTL-NB,,21.166345,105.779522,,
hanoi_stop_7294698185,Qua cầu vượt ngã 4 Nam Hồng 70m Cao tốc BTL-NB,,21.158219,105.779178,,
hanoi_stop_963363560,Đầm Vân Trì- Km 4+400 Cao tốc BTL-NB,,21.151816,105.778897,,
hanoi_stop_7294698186,"Qua cầu chui dân sinh số 4 - đối diện đường vào thôn Nhuế, Km 11+200 (chiều sân bay Nội Bài đi Hà Nội)",,21.141534,105.778478,,
hanoi_stop_963363533,UBND xã Kim Chung- Km 2+200 Cao tốc BTL-NB,,21.131618,105.779062,,
hanoi_stop_7294678088,Trước ngã tư khu CN Thăng Long 100m (chiều Nội Bài - Hà Nội),,21.126413,105.780713,,
hanoi_stop_4699035099,Công viên Nghĩa Đô - 64 Nguyễn Văn Huyên,,21.040827,105.797477,,
hanoi_stop_11522073219,33-35 Trần Đăng Ninh,,21.036244,105.793787,,
hanoi_stop_8898755902,Điểm đỗ xe buýt Nam Thăng Long,,21.067344,105.786896,,
hanoi_stop_11524504078,Trung tâm Samsung R&D,,21.062347,105.791897,,
hanoi_stop_9730236372,Đối diện chung cư Học viện Quốc Phòng - Xuân Tảo,,21.049674,105.797446,,
hanoi_stop_13449454021,Công viên Starlake Tây Hồ Tây,,21.055123,105.797426,,
hanoi_stop_738814465,Tổng công ty Đường sắt Việt Nam - 116 Lê Duẩn,,21.025734,105.841468,,
hanoi_stop_738815423,44-46 Khâm Thiên,,21.019018,105.838866,,
hanoi_stop_738813348,274-276 Khâm Thiên,,21.019330,105.834296,,
hanoi_stop_5061374324,142-144 Nguyễn Lương Bằng,,21.015944,105.828287,,
hanoi_stop_738813601,Gò Đống Đa - Tây Sơn,,21.011212,105.825379,,
hanoi_stop_738815717,290 Tây Sơn,,21.007414,105.823330,,
hanoi_stop_444394752,Tòa nhà King Palace - 108 Nguyễn Trãi,,20.999853,105.815113,,
hanoi_stop_444395014,322 Nguyễn Trãi,,20.995901,105.809151,,
hanoi_stop_444394999,386 Nguyễn Trãi - Cục Sở hữu Trí tuệ,,20.993488,105.805671,,
hanoi_stop_444394994,Bách hóa Thanh Xuân - đường Nguyễn Trãi,,20.990520,105.801519,,
hanoi_stop_444394979,216 Nguyễn Trãi - Nhà Văn hóa tổ dân phố số 8 & 9 Phường Trung Văn,,20.987886,105.797790,,
hanoi_stop_8770675677,Công ty CP Công trình GT 873 - Nguyễn Trãi,,20.985863,105.794904,,
hanoi_stop_444394956,Số 10 Trần Phú - Siêu thị Việt Long,,20.983357,105.791540,,
hanoi_stop_444394950,Học viện công nghệ bưu chính viễn thông - Trần Phú (Hà Đông),,20.980523,105.788002,,
hanoi_stop_8770675678,Ga Văn Quán,,20.977670,105.784442,,
hanoi_stop_8770675679,Khách sạn Sông Nhuệ (148 Trần Phú- Hà Đông),,20.975472,105.781537,,
hanoi_stop_8770675680,8 Quang Trung - Hà Đông,,20.972484,105.777489,,
hanoi_stop_8770675681,80 Quang Trung - Hà Đông,,20.970084,105.774535,,
hanoi_stop_8770675682,Nhà thi đấu Hà Đông - 182 Quang Trung (Hà Đông),,20.967582,105.771339,,
hanoi_stop_8770675683,350-352 Quang Trung - Ga La Khê,,20.963770,105.766484,,
hanoi_stop_8770675684,Giữa số 428 - 430 Quang Trung (Hà Đông),,20.962100,105.764371,,
hanoi_stop_8770675685,530-532 Quang Trung - Hà Đông,,20.959962,105.761603,,
hanoi_stop_8770739141,678 - 680 Quang Trung (Hà Đông),,20.958115,105.759239,,
hanoi_stop_8939177163,870 Quang Trung - Ga Văn Khê,,20.955579,105.755825,,
hanoi_stop_8770739142,Nissan Hà Đông,,20.954091,105.753850,,
hanoi_stop_8770739143,Đối diện Trường Tiểu học Kinh tế Hà Tây - Quốc lộ 6,,20.952036,105.751169,,
hanoi_stop_738813795,10-12 Quán Thánh,,21.040371,105.846814,,
hanoi_stop_8920049617,86 Quán Thánh - Bộ chỉ huy Quân sự Quận Ba Đình,,21.041743,105.844255,,
hanoi_stop_738815690,Ngã ba Hoàng Diệu - Hoàng Văn Thụ,,21.039006,105.839656,,
hanoi_stop_8903312052,34-36 Hoàng Diệu,,21.034220,105.839017,,
hanoi_stop_8835043629,Đối diện K9 Bộ đội Biên phòng,,21.017064,105.862312,,
hanoi_stop_738813697,Cạnh ngõ 18 Nguyễn Khoái (Đối diện Vân Đồn Hotel),,21.009705,105.864842,,
hanoi_stop_738814313,Hè trước số nhà 202 - 204 Nguyễn Khoái,,21.006354,105.868041,,
hanoi_stop_7056039274,539-541 Minh Khai,,21.000797,105.870575,,
hanoi_stop_7056039272,Tòa nhà Imperia Garden 2 - 423 Minh Khai (cột sau),,20.997998,105.866418,,
hanoi_stop_8835043631,199 Minh Khai,,20.995874,105.860262,,
hanoi_stop_8835043632,161 Minh Khai,,20.995580,105.855116,,
hanoi_stop_738814519,Chợ Mơ - 5 Minh Khai,,20.996163,105.850605,,
hanoi_stop_738813564,66 Đại La,,20.996359,105.848178,,
hanoi_stop_738815658,197 Đại La - Qua Phố Vọng,,20.996973,105.843499,,
hanoi_stop_8835043633,32 Minh Khai,,20.995702,105.850684,,
hanoi_stop_7056067374,218-220 Minh Khai,,20.995241,105.854741,,
hanoi_stop_8236303222,308 Minh Khai (Gần cầu Mai Động),,20.995666,105.860883,,
hanoi_stop_7056039273,690-692 Minh Khai,,21.000684,105.870750,,
hanoi_stop_738815660,287 Nguyễn Khoái (Ngã 3 Dốc Minh Khai),,21.006271,105.868450,,
hanoi_stop_738814139,Đối diện Sun Plaza - Nguyễn Khoái,,21.010635,105.864524,,
hanoi_stop_738813579,K9 Bộ đội Biên phòng,,21.017165,105.862486,,
hanoi_stop_738814962,Cạnh phố Hàm Tử Quan (đối diện 162 Trần Quang Khải),,21.032007,105.856509,,
hanoi_stop_8770739144,Trường Trung cấp Kinh tế - Tài chính Hà Nội,,20.951272,105.750430,,
hanoi_stop_8770739145,Đối diện Nissan Hà Đông - Nhà ga Văn Khê,,20.954255,105.754337,,
hanoi_stop_8770739146,807 Quang Trung - Hà Đông,,20.958029,105.759586,,
hanoi_stop_8770739147,"707-709 Quang Trung, Hà Đông (cột mốc H3/15)",,20.959955,105.762060,,
hanoi_stop_8770739148,"Ngã tư Quang Trung, Lê Trọng Tấn - Nhà ga La Khê",,20.963449,105.766548,,
hanoi_stop_8770739149,"Đối diện đường vào chợ La Khê, 371 Quang Trung (Hà Đông)",,20.965142,105.768729,,
hanoi_stop_8770739150,Công ty CPLH Thực Phẩm - 267 Quang Trung - Hà Đông,,20.967355,105.771505,,
hanoi_stop_8770739151,85 Quang Trung (Hà Đông) - Đình Cầu Đơ,,20.970644,105.775710,,
hanoi_stop_8770739152,Đối diện Bưu Điện Hà Đông(15 Quang Trung Hà Đông),,20.972347,105.777858,,
hanoi_stop_8770739153,Liên minh các HTX Hà Nội - Số 1 Trần Phú (Hà Đông),,20.975828,105.782651,,
hanoi_stop_8846358794,Ga Văn Quán - 149 Trần Phú,,20.977514,105.784806,,
hanoi_stop_8770739154,Siêu thị Nguyễn Kim - Km10 Nguyễn Trãi (Hà Đông),,20.979451,105.787180,,
hanoi_stop_444394880,Đại học Kiến Trúc - Trần Phú (Hà Đông),,20.981091,105.789224,,
hanoi_stop_8770739155,Học viện An ninh nhân dân - Trần Phú (Hà Đông),,20.982879,105.791515,,
hanoi_stop_8939177164,Ga Phùng Khoang - 81 Trần Phú,,20.983959,105.792903,,
hanoi_stop_8770739156,517 Nguyễn Trãi - Đối diện Đại học Hà Nội,,20.986233,105.796070,,
hanoi_stop_738814455,495 Nguyễn Trãi,,20.988391,105.799167,,
hanoi_stop_444394809,477 Nguyễn Trãi - Học viện Khoa học Xã hội,,20.990188,105.801730,,
hanoi_stop_444394790,Trước số 277 Nguyễn Trãi - Bách hóa giày Thượng Đình,,20.993199,105.806090,,
hanoi_stop_738814410,Công ty thuốc lá Thăng Long - 235 Nguyễn Trãi,,20.995331,105.809165,,
hanoi_stop_7629327424,Đại học Thuỷ Lợi - 175 Tây Sơn (cột trước),,21.007371,105.823542,,
hanoi_stop_738815809,83 Nguyễn Lương Bằng,,21.016815,105.829078,,
hanoi_stop_738813665,221A-221B Khâm Thiên (Đối diện 302),,21.019252,105.833521,,
hanoi_stop_738813877,Đài tưởng niệm Khâm Thiên - 45 Khâm Thiên,,21.018912,105.838543,,
hanoi_stop_738815776,65 Quán Sứ (Đối diện 80 Quán Sứ),,21.023794,105.844845,,
hanoi_stop_12887824214,Bảo tàng Công an Nhân dân - Trần Bình Trọng,,21.022367,105.845284,,
hanoi_stop_738814318,3A Phan Đình Phùng,,21.039884,105.845767,,
hanoi_stop_8837631357,92-94 Tôn Đức Thắng,,21.027343,105.833864,,
hanoi_stop_8837631358,160 Tôn Đức Thắng,,21.024859,105.832736,,
hanoi_stop_738814445,276 Tôn Đức Thắng,,21.019988,105.830444,,
hanoi_stop_738813973,283 Tôn Đức Thắng,,21.019997,105.830756,,
hanoi_stop_446044145,Trạm Biến áp Hàng Bột 1 - 107 Tôn Đức Thắng,,21.024105,105.832632,,
hanoi_stop_738813572,Đối diện số 40 Tôn Đức Thắng (Văn Miếu),,21.028593,105.834889,,
hanoi_stop_8838269677,72 Đặng Xuân Bảng,,20.971741,105.829567,,
hanoi_stop_8833029015,Chung Cư Đại Kim,,20.974860,105.825444,,
hanoi_stop_738813608,45 - Ngõ 2 Định Công Thượng,,20.980059,105.820221,,
hanoi_stop_8833070419,573 Vũ Tông Phan,,20.984223,105.815388,,
hanoi_stop_8833070421,375 Vũ Tông Phan,,20.989775,105.813647,,
hanoi_stop_8833070423,283 Vũ Tông Phan,,20.993903,105.814768,,
hanoi_stop_8833070425,71 Vũ Tông Phan,,20.998886,105.817993,,
hanoi_stop_7056077230,Số 65 Nguyễn Trãi,,21.001716,105.818730,,
hanoi_stop_8838269678,Đối diện 63 Giáp Nhất,,21.002801,105.817383,,
hanoi_stop_8838269679,Đối diện 227 Giáp Nhất,,21.007777,105.814516,,
hanoi_stop_8838269680,Đối diện 139 Nguyễn Ngọc Vũ,,21.011341,105.809118,,
hanoi_stop_8838269681,Đối diện 221 Nguyễn Khang,,21.014095,105.805557,,
hanoi_stop_8838269682,Đối diện 83 Nguyễn Khang,,21.017746,105.802424,,
hanoi_stop_8838269683,Số 5 Lô 4C - Vũ Phạm Hàm,,21.019216,105.799671,,
hanoi_stop_5485707984,Trung tâm Lưu trữ Quốc gia 1 - 18 Vũ Phạm Hàm,,21.015461,105.797275,,
hanoi_stop_8923111208,Khu đô thị Mỹ Đình II,,21.032883,105.765213,,
hanoi_stop_738815286,Nhà 5-9 lô 18 KĐT Trung Hòa,,21.016983,105.798368,,
hanoi_stop_8841276448,Tòa nhà G3D Vũ Phạm Hàm,,21.019133,105.799707,,
hanoi_stop_8840893883,81B Nguyễn Khang,,21.017886,105.802228,,
hanoi_stop_8840893884,225 Nguyễn Khang,,21.014102,105.805422,,
hanoi_stop_8840893885,Ngõ 141 Nguyễn Ngọc Vũ,,21.011330,105.808942,,
hanoi_stop_8840893886,Số nhà 225 đường Giáp Nhất,,21.007788,105.814381,,
hanoi_stop_8833070424,41 Vũ Tông Phan,,20.998777,105.817811,,
hanoi_stop_8833070422,291 Vũ Tông Phan,,20.993662,105.814632,,
hanoi_stop_8833070420,381 Vũ Tông Phan,,20.989623,105.813573,,
hanoi_stop_8833070418,581 Vũ Tông Phan,,20.983988,105.815474,,
hanoi_stop_8833070417,33 - Ngõ 2 Định Công Thượng,,20.980030,105.820086,,
hanoi_stop_8833029016,Chung Cư Đại Kim,,20.974771,105.825365,,
hanoi_stop_8840893888,71 Đặng Xuân Bảng,,20.972152,105.829210,,
hanoi_stop_8840893890,Qua chợ Xanh Linh Đàm 50m,,20.965990,105.835938,,
hanoi_stop_8840893891,Đối diện qua Tượng đài liệt sĩ phường Hoàng Liệt 30m,,20.965626,105.839601,,
hanoi_stop_8925798720,Ký túc xá - Khu đô thị Mỹ Đình II,,21.032670,105.765444,,
hanoi_stop_8846358753,Cổng thôn Yên Xá - 89 Cầu Bươu,,20.964495,105.794010,,
hanoi_stop_8846358754,Gần đường vào Trại tạm giam,,20.961645,105.799193,,
hanoi_stop_8846358755,Công ty XNK Lâm nông sản số 1 Sài Gòn,,20.959481,105.803213,,
hanoi_stop_8846358756,CT8B chung cư Đại Thanh,,20.957317,105.807197,,
hanoi_stop_8846358757,Đối diện Trung tâm XNK Xây dựng Vimeco,,20.959378,105.811573,,
hanoi_stop_8846358758,Đối diện UBND xã Thanh Liệt,,20.963237,105.817621,,
hanoi_stop_8755733290,Nhà HH2A Khu đô thị Linh Đàm,,20.965005,105.827328,,
hanoi_stop_8840893889,Trung Tâm CSKH Điện Lực Miền Bắc,,20.965974,105.831866,,
hanoi_stop_8846358762,Ô 72 lô 5 Đền Lừ 2,,20.986868,105.858513,,
hanoi_stop_8846358763,327 Tổ 45 Đường Hoàng Mai,,20.985395,105.862411,,
hanoi_stop_8846358764,Tòa nhà Nam Hải Lakeview,,20.983568,105.866821,,
hanoi_stop_8846358766,Đối diện chùa Phúc Khánh,,20.988597,105.877708,,
hanoi_stop_8846358767,298-300 Vĩnh Hưng,,20.991974,105.879517,,
hanoi_stop_8846358768,Đối diện số 367 Vĩnh Hưng,,20.996450,105.879984,,
hanoi_stop_8846358769,Đối diện Đại học Kinh doanh và Công nghệ Hà Nội,,21.001438,105.878053,,
hanoi_stop_8944376754,Học viện Quân Y - Phùng Hưng (Hà Đông),,20.966591,105.790143,,
hanoi_stop_11536511315,Đối diện chung cư Hesco,,20.978474,105.787044,,
hanoi_stop_11536511316,Đối diện chung cư New Skyline,,20.976129,105.788854,,
hanoi_stop_11542708651,Kiot 19-20 CT7B KĐT Văn Quán,,20.974212,105.789677,,
hanoi_stop_11542708652,Giữa số nhà B20 - B22 Nguyễn Khuyến,,20.970227,105.791579,,
hanoi_stop_11542708653,Đối diện gần cổng sau viện 103 - KĐT Văn Quán,,20.969177,105.786796,,
hanoi_stop_13697659017,Đối diện Bến xe Nước ngầm Hà Nội - Ngọc Hồi (cột sau),,20.964007,105.841800,,
hanoi_stop_8846358774,Qua đường dẫn lên cầu Vĩnh Tuy,,21.002081,105.875262,,
hanoi_stop_8846358775,510 Nguyễn Khoái - Đại học Kinh doanh và Công nghệ Hà Nội,,21.001408,105.877750,,
hanoi_stop_8846358776,Ngõ 321 Vĩnh Hưng,,20.996533,105.879854,,
hanoi_stop_8846358777,303 Vĩnh Hưng,,20.991725,105.879231,,
hanoi_stop_8846358778,193 Vĩnh Hưng,,20.988410,105.877498,,
hanoi_stop_8846358780,Đối diện tòa nhà Nam Hải Lakeview,,20.983844,105.867693,,
hanoi_stop_8846358781,Lô 5 Đền Lừ 1,,20.985120,105.862917,,
hanoi_stop_8846358782,130 Đền Lừ 2,,20.986985,105.858463,,
hanoi_stop_8838269673,Ngã 4 Giải Phóng - Hoàng Liệt,,20.965936,105.840783,,
hanoi_stop_8838269674,Trước Tượng đài liệt sĩ phường Hoàng Liệt 30m,,20.966160,105.838291,,
hanoi_stop_8838269675,UBND phường Hoàng Liệt,,20.966472,105.835174,,
hanoi_stop_8838269676,Trung Tâm CSKH Điện Lực Miền Bắc,,20.966014,105.831611,,
hanoi_stop_4273838289,Nhà HH1C Khu đô thị Linh Đàm,,20.964998,105.826634,,
hanoi_stop_8846358786,Nhà văn hóa xã Thanh Liệt,,20.963218,105.817364,,
hanoi_stop_8846358787,Trung tâm XNK Xây dựng Vimeco,,20.959919,105.812070,,
hanoi_stop_8846358788,30 Cầu Bươu,,20.957226,105.807869,,
hanoi_stop_8846358789,12 Cầu Bươu,,20.959350,105.803829,,
hanoi_stop_8846358790,Bệnh viện K - Cơ sở Tân Triều,,20.961971,105.798974,,
hanoi_stop_8846358791,"Đối diện Tòa nhà CT2 Chung cư viện bỏng, gần ngã ba Yên Xá - Phùng Hưng (Hà Đông)",,20.964721,105.793939,,
hanoi_stop_8846358752,Viện 103 - Phùng Hưng (Hà Đông),,20.967233,105.789327,,
hanoi_stop_11542708655,Trước 50m cách cổng sau viện 103 - KĐT Văn Quán,,20.969093,105.786881,,
hanoi_stop_11542708657,Đối diện Kiot 19-20 CT7B KĐT Văn Quán,,20.974379,105.789906,,
hanoi_stop_11536511327,Chung cư New Skyline,,20.976955,105.788573,,
hanoi_stop_8846358748,AEON Mall Long Biên,,21.026619,105.899342,,
hanoi_stop_8849027507,Đối diện tập thể 810 ngõ 83,,20.957618,105.844219,,
hanoi_stop_1927591119,Công ty biến thế ABB - Ngọc Hồi,,20.957965,105.842864,,
hanoi_stop_8236289500,Nhà NƠ. 1A KĐT Linh Đàm,,20.964907,105.831283,,
hanoi_stop_8236289507,Công viên Bắc Linh Đàm,,20.967267,105.826599,,
hanoi_stop_8845983480,KĐT Kim Văn-Kim Lũ,,20.972333,105.820560,,
hanoi_stop_8845983481,Trường Đại học Thăng Long,,20.976397,105.814730,,
hanoi_stop_8845983482,Trước ngã 3 Nguyễn Xiển - Hoàng Đạo Thành,,20.981462,105.810963,,
hanoi_stop_8845983483,Hầm đường bộ số 4 - Nguyễn Xiển,,20.985309,105.808157,,
hanoi_stop_8845983484,Viện Công nghệ Thực phẩm Trung ương,,20.989882,105.804743,,
hanoi_stop_738813593,90 Nguyễn Tuân,,20.995732,105.805534,,
hanoi_stop_7617390946,Làng sinh viên Hacinco,,21.000222,105.801946,,
hanoi_stop_8850985958,771 - 773 Nguyễn Hoàng Tôn,,21.077949,105.789225,,
hanoi_stop_8850985959,Tập thể Pháo Binh 563 - 565 Nguyễn Hoàng Tôn,,21.075950,105.794218,,
hanoi_stop_8850985960,393 Nguyễn Hoàng Tôn,,21.074070,105.799139,,
hanoi_stop_8850985962,Trường Trung học cơ sở Nhật Tân - 474 Lạc Long Quân,,21.073527,105.812934,,
hanoi_stop_11515782288,Đối diện 40 Nguyễn Hoàng Tôn,,21.071288,105.806629,,
hanoi_stop_8934749270,596 Lạc Long Quân - Cạnh đường vào Công viên Nước Hồ Tây,,21.076142,105.814433,,
hanoi_stop_738814284,Nhà N2C Khu đô thị Trung Hòa Nhân Chính,,21.002871,105.799906,,
hanoi_stop_7617390947,Trường Trung học phổ thông chuyên Hà Nội - Amsterdam,,21.006699,105.796783,,
hanoi_stop_11523863232,UBND Quận Tây Hồ - Nguyễn Hoàng Tôn,,21.069963,105.809932,,
hanoi_stop_8852120920,Qua 50m ngõ 677 Lạc Long Quân (Đối diện trường Trung học cơ sở Nhật Tân - 474 Lạc Long Quân),,21.071529,105.812111,,
hanoi_stop_8852120921,Cổng vào KĐT Ciputra (Đối diện 83 Nguyễn Hoàng Tôn),,21.070839,105.808101,,
hanoi_stop_8852120922,333-335 Nguyễn Hoàng Tôn,,21.073505,105.800979,,
hanoi_stop_8852120923,Đối diện tập thể Pháo Binh (đối diện 547 Nguyễn Hoàng Tôn),,21.075806,105.794884,,
hanoi_stop_8852120924,721 Nguyễn Hoàng Tôn,,21.077537,105.790539,,
hanoi_stop_8755733283,Qua cổng chính nghĩa trang Quán Dền - Nguyễn Tuân,,21.001492,105.800801,,
hanoi_stop_8755733284,Viện Khoa học Hình sự - 99 Nguyễn Tuân,,20.996416,105.804809,,
hanoi_stop_8846689642,100 Nguyễn Xiển,,20.989465,105.804468,,
hanoi_stop_8846689643,Công ty Cổ phần Thiên Phú,,20.985645,105.807237,,
hanoi_stop_8846689644,Hầm đường bộ số 3 - Nghiêm Xuân Yêm,,20.979441,105.811792,,
hanoi_stop_8846689645,Trường Đại học Thăng Long,,20.975741,105.814555,,
hanoi_stop_8846689646,Trung tâm Huấn luyện và Thi đấu Thể thao Công an nhân dân,,20.971654,105.821057,,
hanoi_stop_738814934,Nhà NƠ. 7B KĐT Linh Đàm,,20.963547,105.830495,,
hanoi_stop_8237141711,Trường PTTH Việt Nam Balan (Đối diện Khách sạn Nam Thành) - Ngọc Hồi,,20.960484,105.841997,,
hanoi_stop_8852120926,Trạm biến áp Pháp Vân 6,,20.957687,105.844940,,
hanoi_stop_11514018112,Bãi đỗ xe Khu đô thị Linh Đàm,,20.967432,105.826590,,
hanoi_stop_7622910382,Đối diện Trường Trung học phổ thông chuyên Hà Nội - Amsterdam,,21.006381,105.796751,,
hanoi_stop_7622910383,Đối diện nhà N2A Khu đô thị Trung Hòa Nhân Chính,,21.003142,105.799510,,
hanoi_stop_11522353094,Đối diện UBND Quận Tây Hồ - Nguyễn Hoàng Tôn,,21.070191,105.810016,,
hanoi_stop_8853934325,15B1 Nguyễn Khánh Toàn,,21.037212,105.801446,,
hanoi_stop_8853934326,Hè trước đối diện số nhà 26 - 28 Nguyễn Khánh Toàn,,21.035434,105.803664,,
hanoi_stop_8349461381,20 Tôn Thất Tùng - Đối diện Đại học Y Hà Nội,,21.002855,105.829860,,
hanoi_stop_738815872,Qua đường vào Bệnh viện đa khoa Thăng Long 60m - Đối diện 171 Ngọc Hồi,,20.954963,105.843247,,
hanoi_stop_738815864,Đối diện TCT cơ điện nông nghiệp & Thủy lợi (Văn Điển) - 264 Ngọc Hồi,,20.952095,105.843848,,
hanoi_stop_436176914,Đối diện Trụ sở HĐND huyện Thanh Trì - Ngọc Hồi,,20.946601,105.844216,,
hanoi_stop_1927580771,Qua ngã 3 Ngọc Hồi - Phan Trọng Tuệ 100m - Ngọc Hồi,,20.942234,105.843920,,
hanoi_stop_8853934332,Qua Khu tập thể LICÔLA 100m - Ngọc Hồi,,20.938810,105.844378,,
hanoi_stop_1928641076,Gần ngã 3 đường Quỳnh Đô - Ngọc Hồi,,20.935098,105.845835,,
hanoi_stop_8853934333,Qua Công ty CP Vận tải & Dịch vụ TS 15m - Ngọc Hồi,,20.932138,105.846986,,
hanoi_stop_8853934334,Viện nghiên cứu trồng & phát triển cây thuốc,,20.926844,105.849359,,
hanoi_stop_8853934335,Chùa Ngọc Hồi - Đường mới,,20.923911,105.848293,,
hanoi_stop_8853934336,Đối diện trường Trung học cơ sở Ngọc Hồi - Đường mới,,20.923056,105.844731,,
hanoi_stop_8853934337,Trước ngã 3 Lạc Thị 200m - Đường mới,,20.927195,105.837022,,
hanoi_stop_8853934338,Qua Chợ Lạc Thị 200m,,20.924740,105.834905,,
hanoi_stop_8853934339,Qua lối vào Chùa Thanh Dương 100m,,20.919700,105.833500,,
hanoi_stop_8853934340,Đại Lý Thuốc Tân Dược Thôn Vĩnh Thịnh,,20.915466,105.832258,,
hanoi_stop_8853934341,Cổng làng Vĩnh Trung,,20.910888,105.831004,,
hanoi_stop_12078321336,Trường Trung học cơ sở Đại Áng,,20.906978,105.829824,,
hanoi_stop_12078321337,Đối diện trường Trung học phổ thông Nguyễn Quốc Trinh,,20.903900,105.829057,,
hanoi_stop_12078321338,Đối diện UBND xã Khánh Hà,,20.898518,105.826622,,
hanoi_stop_738815241,Đối diện Công viên Thủ Lệ - Đường Bưởi dưới,,21.031306,105.802546,,
hanoi_stop_11128036710,Tập thể điện tử Tàu Thủy,,21.026456,105.803969,,
hanoi_stop_11128036713,Đối diện Toà án nhân dân quận Đống Đa,,21.021153,105.804429,,
hanoi_stop_11128036715,Đối diện Tổng cục Khí tượng Thuỷ văn,,21.020548,105.806905,,
hanoi_stop_12078321339,UBND xã Khánh Hà,,20.898287,105.826623,,
hanoi_stop_12078321340,Trường Trung học phổ thông Nguyễn Quốc Trinh,,20.904309,105.829306,,
hanoi_stop_12078321341,UBND xã Đại Áng,,20.907416,105.830151,,
hanoi_stop_8856174797,Đối diện cổng làng Vĩnh Trung,,20.910652,105.831051,,
hanoi_stop_8856174798,Đối diện Đại lý thuốc tân dược thôn Vĩnh Thịnh,,20.917286,105.832892,,
hanoi_stop_8856174799,Đối diện lối vào Chùa Thanh Dương 100m,,20.920661,105.833862,,
hanoi_stop_8856174800,Cách chợ Lạc Thị 100m,,20.925316,105.835142,,
hanoi_stop_8856174801,Qua ngã 3 Lạc Thị 150m - Đường mới,,20.926824,105.837473,,
hanoi_stop_8856174802,Trường Trung học cơ sở Ngọc Hồi,,20.923040,105.845232,,
hanoi_stop_8856174803,Đối diện Chùa Ngọc Hồi,,20.924017,105.849198,,
hanoi_stop_8856174804,Công ty công trình giao thông 124 (Km 12 + 500 Quốc lộ 1A) - Ngọc Hồi,,20.926855,105.849769,,
hanoi_stop_8856174805,Công ty 17 Lữ đoàn 17 Binh đoàn 12 - Ngọc Hồi,,20.931961,105.847425,,
hanoi_stop_1928641073,Qua ngã 3 đường Quỳnh Đô - Ngọc Hồi,,20.935390,105.846018,,
hanoi_stop_738814358,Đối diện Khu tập thể LICÔLA - Ngọc Hồi,,20.938979,105.844567,,
hanoi_stop_1927580770,449 - 451 Ngọc Hồi,,20.944171,105.844599,,
hanoi_stop_738813839,373 Ngọc Hồi,,20.946967,105.844482,,
hanoi_stop_8856174806,TCT cơ điện nông nghiệp & Thủy lợi (Văn Điển) - Ngọc Hồi,,20.951681,105.844226,,
hanoi_stop_1927591121,Đối diện 184 Ngọc Hồi,,20.955567,105.843355,,
hanoi_stop_738815674,Đại Học Y Hà Nội - Đối diện 26 Tôn Thất Tùng,,21.002205,105.829721,,
hanoi_stop_738815482,Hè trước giữa số nhà 26 - 28 Nguyễn Khánh Toàn,,21.035583,105.803868,,
hanoi_stop_738814058,Qua ngã ba Nguyễn Khánh Toàn - Dương Quảng Hàm,,21.037373,105.801608,,
hanoi_stop_11128036711,Đối diện tập thể điện tử Tàu Thủy,,21.026398,105.804104,,
hanoi_stop_8741294708,Công viên Thủ Lệ - Đường Bưởi tránh mới (gần ngõ 32 đường Bưởi),,21.031642,105.803483,,
hanoi_stop_11128036714,Tổng cục Khí tượng Thuỷ văn,,21.020753,105.806843,,
hanoi_stop_11128036712,Toà án nhân dân quận Đống Đa,,21.021277,105.804458,,
hanoi_stop_8856174807,Tòa chung cư 96A Phố Định Công,,20.984560,105.838891,,
hanoi_stop_8856174808,Trạm biến áp số 9 Định Công,,20.985675,105.833551,,
hanoi_stop_8856174809,Đối diện trạm cấp nước sạch Định Công - 61 Tổ 37 Định Công,,20.987663,105.831662,,
hanoi_stop_4893056431,Kiosk số 7 nhà CT.6 - ĐN 2 Định Công,,20.990032,105.830570,,
hanoi_stop_8856174810,Đối diện 210 Lê Trọng Tấn,,20.992466,105.832471,,
hanoi_stop_8856174811,Đối diện 158 Lê Trọng Tấn,,20.995908,105.830343,,
hanoi_stop_8856174812,Cạnh hàng rào Bảo tàng Không Quân - Đường Tôn Thất Tùng kéo dài,,20.999855,105.828904,,
hanoi_stop_8865361274,Số 1 Lưu Xá,,21.065935,105.707454,,
hanoi_stop_8865361275,Trường Trung học cơ sở Đức Giang,,21.062623,105.706591,,
hanoi_stop_8865361276,Công Ty CP Xây Dựng Kinh Doanh Tổng Hợp Sơn Hà,,21.054596,105.705060,,
hanoi_stop_8865361277,Đối diện Trường Trung học phổ thông Hoài Đức A,,21.050014,105.704021,,
hanoi_stop_8865361278,Qua ngã tư Sơn Đồng,,21.046985,105.705275,,
hanoi_stop_8865361279,Công ty Điện lực huyện Hoài Đức,,21.045495,105.711162,,
hanoi_stop_8865361280,Trạm biến áp Di Trạch 6,,21.043147,105.718468,,
hanoi_stop_8865361281,Đối diện số 20 LK 39 Khu đô thị Vân Canh,,21.040766,105.722129,,
hanoi_stop_8865361282,Qua 30m đối diện trường Mầm non Vân Canh,,21.039098,105.727032,,
hanoi_stop_8865361283,Đài tưởng niệm Vân Canh,,21.036586,105.730031,,
hanoi_stop_8865361284,Đối diện Trường Trung học cơ sở Vân Canh,,21.035100,105.734212,,
hanoi_stop_8865361285,Qua 30m cổng làng An Trai,,21.034851,105.735451,,
hanoi_stop_8865361286,Bưu điện Vân Canh,,21.035939,105.738269,,
hanoi_stop_8865361288,Đối diện Trường Đại học Công nghệ Đông Á,,21.039397,105.741997,,
hanoi_stop_8865361289,Trước cầu vượt Xuân Phương 100m,,21.036558,105.749050,,
hanoi_stop_8865361290,"Trước đối diện tòa nhà CT2A, KĐT Xuân Phương 30m",,21.031313,105.756743,,
hanoi_stop_8865361291,Đối diện nhà C6 Khu đô thị Mỹ Đình I,,21.029553,105.762236,,
hanoi_stop_8865361293,Đối diện Chi cục Thi hành án quận Cầu Giấy,,21.030365,105.786647,,
hanoi_stop_8865361294,Đối diện Trường Trung học cơ sở Cầu Giấy,,21.030030,105.789077,,
hanoi_stop_8865361295,Trước nhà 29 Trương Công Giai,,21.034371,105.790813,,
hanoi_stop_8865361296,Qua ngõ 38 Trần Quý Kiên 30m,,21.037944,105.792014,,
hanoi_stop_8865361297,171-173 Trần Đăng Ninh,,21.038387,105.792743,,
hanoi_stop_8865361298,B5 Làng Quốc tế Thăng Long,,21.038482,105.792947,,
hanoi_stop_8865361300,Giữa nhà 181 Tô Hiệu (Đối diện Trung học cơ sở Nghĩa Tân),,21.041589,105.793902,,
hanoi_stop_11527354910,Ngã tư Xuân Phương - Trịnh Văn Bô,,21.040340,105.738021,,
hanoi_stop_12082634705,Trước ngõ 11 Duy Tân 50m,,21.030888,105.783774,,
hanoi_stop_12579155907,Trạm Y tế Xã Đức Giang,,21.058465,105.705838,,
hanoi_stop_8865361299,Trường Trung học cơ sở Nghĩa Tân - Đối diện 179 Tô Hiệu,,21.041708,105.794002,,
hanoi_stop_8865361302,Trung tâm thể dục thể thao quận Cầu Giấy,,21.037723,105.791872,,
hanoi_stop_8865361303,Trước nhà 20 Trương Công Giai,,21.035106,105.791081,,
hanoi_stop_8865361304,Qua trường Trung học cơ sở Cầu Giấy 50m,,21.030556,105.789672,,
hanoi_stop_8865361305,Chi cục Thi hành án quận Cầu Giấy,,21.030660,105.785963,,
hanoi_stop_8865361306,Qua ngõ 86 Duy Tân 30m,,21.031379,105.781517,,
hanoi_stop_8865361308,Nhà C6 Khu đô thị Mỹ Đình I,,21.029957,105.762329,,
hanoi_stop_8865361309,"Qua nhà CT2A, KĐT Xuân Phương 30m",,21.031803,105.756508,,
hanoi_stop_8865361310,Qua cầu vượt Xuân Phương 100m,,21.037030,105.749095,,
hanoi_stop_8865361311,Nhà máy Bia Sài Gòn - Hà Nội,,21.039626,105.742397,,
hanoi_stop_8865361313,Đối diện Bưu điện Vân Canh,,21.035664,105.738214,,
hanoi_stop_8865361314,Đối diện cổng làng An Trai,,21.034994,105.735133,,
hanoi_stop_8865361315,Trường Trung học cơ sở Vân Canh,,21.035352,105.733102,,
hanoi_stop_8865361316,Đối diện Đài tưởng niệm Vân Canh,,21.037211,105.729564,,
hanoi_stop_8865385017,Chùa Hậu Ái,,21.039437,105.726740,,
hanoi_stop_8865385018,Tường rào Nhà máy A34,,21.040926,105.722205,,
hanoi_stop_8865385019,Đối diện trạm biến áp Di Trạch 6,,21.042986,105.719187,,
hanoi_stop_8865385020,Trước cổng làng Văn Hóa Đại Tự 50m,,21.045330,105.712322,,
hanoi_stop_8865385021,Trước ngã tư Sơn Đồng 100m,,21.047226,105.704761,,
hanoi_stop_8865385022,Trường Trung học phổ thông Hoài Đức A,,21.049812,105.704125,,
hanoi_stop_8865385023,Công Ty CP Xây Dựng Kinh Doanh Tổng Hợp Sơn Hà,,21.054049,105.705060,,
hanoi_stop_8865385024,Đối diện trường Trung học cơ sở Đức Giang,,21.062250,105.706645,,
hanoi_stop_8865385025,UBND huyện Hoài Đức,,21.065317,105.707607,,
hanoi_stop_12579155908,Đối diện Trạm Y tế Xã Đức Giang,,21.058476,105.705985,,
hanoi_stop_1008752617,Đối diện Trung tâm Giải trí Ngôi Sao Xanh (Hồ Thiền Quang),,21.017218,105.845803,,
hanoi_stop_738814080,196 Thái Thịnh,,21.013757,105.815198,,
hanoi_stop_8895529058,Đối diện Học viện Quan hệ quốc tế - 69 Chùa Láng,,21.023452,105.806531,,
hanoi_stop_8757875252,Café Don 105E5 Thái Thịnh - Đối diện Bệnh viện Châm cứu Trung ương,,21.007605,105.820913,,
hanoi_stop_738814480,122 Thái Thịnh,,21.011604,105.817581,,
hanoi_stop_8895558432,Gần cổng Parabol ĐH Bách Khoa - 17 Giải Phóng (cột sau),,21.004950,105.841572,,
hanoi_stop_738813333,Đối diện 394 Lê Duẩn,,21.009523,105.841443,,
hanoi_stop_738813618,Công viên Thống Nhất - Đối diện 326 Lê Duẩn,,21.014125,105.841470,,
hanoi_stop_8209169359,13A Trần Hưng Đạo,,21.019396,105.857414,,
hanoi_stop_8895558434,162 Nguyễn Văn Cừ (cột sau),,21.042634,105.871098,,
hanoi_stop_10134844430,Đối Diện 28 Trần Bình Trọng - Hồ Thiền Quang,,21.018445,105.843959,,
hanoi_stop_8895558436,32 Trần Hưng Đạo,,21.020390,105.854507,,
hanoi_stop_8895558437,254-256 Lê Duẩn,,21.015701,105.841357,,
hanoi_stop_8895558433,358-360 Lê Duẩn,,21.009827,105.841281,,
hanoi_stop_8895558438,Đối diện cổng Parabol ĐH Bách Khoa (cột sau),,21.004979,105.841196,,
hanoi_stop_11515658234,87 Đại La,,20.995973,105.847806,,
hanoi_stop_8895558439,Sân Golf Long Biên,,21.029924,105.899054,,
hanoi_stop_8895558445,Khu nhà N01A khu đô thị Sài Đồng - đường Chu Huy Mân,,21.039654,105.904161,,
hanoi_stop_8895558464,Trước cửa hàng sửa chữa xe máy Hùng Phi 15m,,21.060964,105.915215,,
hanoi_stop_12307277455,Qua ngã 4 Nguyễn Lam - Chu Huy Mân,,21.041354,105.904074,,
hanoi_stop_12307277456,Đối diện 108 Nguyễn Lam,,21.044380,105.900089,,
hanoi_stop_12307277457,Qua 50m ngã tư Vũ Đức Thận - Việt Hưng,,21.050539,105.895650,,
hanoi_stop_11531107946,Đối diện 144 Việt Hưng,,21.052143,105.898341,,
hanoi_stop_11531107947,95 Việt Hưng,,21.053956,105.902511,,
hanoi_stop_12717509075,Trường liên cấp Marie Curie - Bùi Thiện Ngộ,,21.058130,105.908169,,
hanoi_stop_9003315156,Đối diện khu BT6 - KĐT Việt Hưng - Lưu Khánh Đàm,,21.060077,105.910741,,
hanoi_stop_13158088127,Trước Trường tiểu học Giang Biên 10m,,21.063807,105.917260,,
hanoi_stop_8895558469,Qua đối diện cửa hàng sữa chữa xe máy Hùng Phi 30m,,21.061417,105.915244,,
hanoi_stop_9003315157,Khu BT6 - KĐT Việt Hưng - Lưu Khánh Đàm,,21.059776,105.911973,,
hanoi_stop_12717509076,Đối diện Trường Liên cấp Marie Curie - Bùi Thiện Ngộ,,21.058239,105.908184,,
hanoi_stop_11246285582,68-70 Việt Hưng,,21.053740,105.901752,,
hanoi_stop_11246285583,134 Việt Hưng,,21.052365,105.898477,,
hanoi_stop_11246285584,Gần ngã tư Vũ Đức Thận - Việt Hưng,,21.050795,105.895807,,
hanoi_stop_11246285585,102 Nguyễn Lam,,21.044338,105.899848,,
hanoi_stop_11246285586,Ngã tư Nguyễn Lam - Chu Huy Mân,,21.041267,105.903878,,
hanoi_stop_8895558446,Trường tiểu học Phúc Đồng - đường Chu Huy Mân,,21.040293,105.904302,,
hanoi_stop_8895558440,Đối diện sân golf Long Biên,,21.030106,105.898630,,
hanoi_stop_13158088128,Qua đối diện Trường tiểu học Giang Biên 20m,,21.064021,105.917581,,
hanoi_stop_8895739841,85-87 Chùa Láng,,21.023396,105.806099,,
hanoi_stop_11551502894,133 Thái Thịnh,,21.014052,105.814692,,
hanoi_stop_738815785,104 A49 Thái Thịnh,,21.011347,105.817636,,
hanoi_stop_738814705,Bệnh viện Châm cứu Trung ương - 49 Thái Thịnh,,21.008893,105.819704,,
hanoi_stop_8770739205,Đại học Thuỷ Lợi - 175 Tây Sơn (cột sau),,21.007752,105.823723,,
hanoi_stop_12723561995,Công viên Thống Nhất - Trần Nhân Tông,,21.017162,105.845215,,
hanoi_stop_8897455250,534 Kim Giang,,20.968951,105.823550,,
hanoi_stop_8897455251,704 Kim Giang,,20.965476,105.820149,,
hanoi_stop_8897455252,Qua Cầu Tó 150m,,20.954772,105.812113,,
hanoi_stop_8897455253,Qua TT giáo dục TX Huyện Thanh Trì 100m,,20.952115,105.817233,,
hanoi_stop_8897455254,Đối diện XN KD Kim Khí và Dịch vụ số 3,,20.947544,105.825858,,
hanoi_stop_8897455255,Cột Mốc Km2 - Phan Trọng Tuệ,,20.947229,105.828857,,
hanoi_stop_5059727803,Trung tâm y tế dự phòng HN - 70 Nguyễn Chí Thanh,,21.018236,105.807015,,
hanoi_stop_8897455258,Cột Mốc Km2 - Phan Trọng Tuệ,,20.947442,105.828948,,
hanoi_stop_8897455259,XN KD Kim Khí và Dịch vụ số 3,,20.947430,105.826284,,
hanoi_stop_8897455260,XN KD Kim Khí và D.vụ số 1,,20.951519,105.818611,,
hanoi_stop_8897455261,Trường CĐ Kỹ Thuật Công Nghiệp HN,,20.955275,105.811544,,
hanoi_stop_8897455262,Đối diện 690 Kim Giang,,20.965831,105.820722,,
hanoi_stop_8897455263,Đối diện 534 Kim Giang,,20.969075,105.823734,,
hanoi_stop_8898755900,KTX Đại học Giao thông Vận tải - 99 Nguyễn Chí Thanh,,21.018218,105.807453,,
hanoi_stop_11680376018,Ga Cầu Giấy - Thủ Lệ 01,,21.029115,105.804021,,
hanoi_stop_4755947785,Đối diện 21 Bồ Đề,,21.038853,105.867011,,
hanoi_stop_8900261008,Đối diện 155 Bồ Đề,,21.035825,105.871812,,
hanoi_stop_8900261009,Đối diện 299-301 Bồ Đề,,21.033228,105.875933,,
hanoi_stop_8900261010,Đối diện chùa Sùng Khánh Tư Đình,,21.028825,105.881355,,
hanoi_stop_8900261011,Đối diện điếm thôn Tư Đình,,21.024002,105.885482,,
hanoi_stop_8900261012,Đối diện chùa Nghiêm Quang - điếm thôn Trạm,,21.022334,105.889629,,
hanoi_stop_8900261013,Cầu Vĩnh Tuy - Đối diện điếm thôn Nha,,21.021404,105.895049,,
hanoi_stop_8900261014,Đối diện chùa Cự Linh - Ngã 3 Thạch Bàn,,21.020306,105.901416,,
hanoi_stop_8900261015,Đối diện điếm thôn Ngô,,21.017000,105.904406,,
hanoi_stop_8900261016,Đối diện điếm Cự Khối - Công an phường Cự Khối,,21.009917,105.904768,,
hanoi_stop_8900275017,Đối diện điếm thôn Đông Dư Thượng - Cầu Thanh Trì,,20.999825,105.910736,,
hanoi_stop_8900275018,Đối diện điếm thôn Đông Dư Hạ,,20.992774,105.915453,,
hanoi_stop_738815686,Đối diện đường vào đồn cảnh sát Đa Tốn,,20.983590,105.919468,,
hanoi_stop_8900275019,Trước ngã 3 Xuân Quan - Bát Tràng 30m (chiều đi Bát Tràng),,20.972954,105.919607,,
hanoi_stop_11525014914,Vườn Mai - Rừng Thông,,20.971978,105.932207,,
hanoi_stop_11525014915,Siêu thị Citimart - Rừng Cọ,,20.972467,105.927973,,
hanoi_stop_11525014916,A2 Rừng Sọ,,20.973496,105.925471,,
hanoi_stop_8995345614,Sau Ngã tư Đa Tốn - Tỉnh lộ 379,,20.983722,105.925025,,
hanoi_stop_8900275022,Qua ngã 3 Bát Tràng - Xuân Quan 30m (chiều đi Hà Nội),,20.973179,105.919843,,
hanoi_stop_8900275023,Đồn cảnh sát Đa Tốn,,20.983739,105.919604,,
hanoi_stop_8900275024,Điếm thôn Đông Dư Hạ,,20.992786,105.916065,,
hanoi_stop_8900275025,Điếm thôn Đông Dư Thượng - Cầu Thanh Trì,,20.999538,105.910992,,
hanoi_stop_8900275026,Điếm Cự Khối,,21.009583,105.905158,,
hanoi_stop_8900275027,Điếm thôn Ngô,,21.016534,105.904615,,
hanoi_stop_8900275028,Ngã 3 Thạch Bàn - Chùa Cự Linh,,21.020122,105.901672,,
hanoi_stop_8900275029,Điếm thôn Nha - Cầu Vĩnh Tuy,,21.021400,105.896614,,
hanoi_stop_8900275030,Điếm thôn Trạm - Chùa Nghiêm Quang,,21.022420,105.890302,,
hanoi_stop_8900275031,Điếm thôn Tư Đình,,21.024023,105.885731,,
hanoi_stop_8900275032,Cách lối rẽ vào chùa Sùng Khánh 50m,,21.028299,105.882013,,
hanoi_stop_8900275033,325 Bồ Đề,,21.032969,105.876684,,
hanoi_stop_8900275034,159-161 Bồ Đề,,21.035851,105.872098,,
hanoi_stop_8900275035,37 Bồ Đề,,21.038586,105.867725,,
hanoi_stop_11525014911,Đối diện nhà trẻ Vinakids,,20.973586,105.921689,,
hanoi_stop_11525014912,Đối diện A2 Rừng Cọ,,20.973388,105.925118,,
hanoi_stop_11525014913,Vườn Tùng - Rừng Cọ,,20.972525,105.927314,,
hanoi_stop_8995358244,Trước Ngã tư Đa Tốn - Tỉnh lộ 379,,20.983619,105.925400,,
hanoi_stop_738813684,Trụ sở Quận uỷ Tây Hồ - 657 Lạc Long Quân,,21.068583,105.811219,,
hanoi_stop_738814289,579 Lạc Long Quân,,21.066020,105.810320,,
hanoi_stop_738815447,545 Lạc Long Quân,,21.063785,105.809453,,
hanoi_stop_738814350,Qua ngã 3 Xuân La 70m - Lạc Long Quân (Hồ Tây),,21.058889,105.808734,,
hanoi_stop_5118690560,Gần ngã 3 Võng Thị - 313 Lạc Long Quân,,21.053044,105.808930,,
hanoi_stop_8807115912,105 - 111 Lạc Long Quân (Gần đối diện ngã 3 Thụy Khuê),,21.049057,105.806560,,
hanoi_stop_8900275036,71 Xã Đàn,,21.012315,105.835756,,
hanoi_stop_738815382,Ngân hàng GP Bank - số 7 Đào Duy Anh,,21.007907,105.839287,,
hanoi_stop_11294871988,Kim Mã (nhà chờ BRT Kim Mã) - Biển sau,,21.031967,105.829591,,
hanoi_stop_8900275037,242 Xã Đàn,,21.012263,105.836218,,
hanoi_stop_738813654,Bộ Y tế - 138A Giảng Võ,,21.028434,105.825401,,
hanoi_stop_8900275039,50-52 Lạc Long Quân,,21.049757,105.807273,,
hanoi_stop_8900275040,196 Lạc Long Quân - Trường mầm non Hoa Hồng,,21.052695,105.809202,,
hanoi_stop_8900275041,Gần ngã 3 Xuân La 40m - Lạc Long Quân (Hồ Tây),,21.059325,105.808971,,
hanoi_stop_8900275042,312 Lạc Long Quân - Chùa Thiên Niên (Chùa Sài),,21.062172,105.809308,,
hanoi_stop_8900275043,360 Lạc Long Quân,,21.065793,105.810526,,
hanoi_stop_8900275044,Đối diện Quận uỷ Tây Hồ - Lạc Long Quân,,21.068679,105.811492,,
hanoi_stop_738815796,"Số nhà 2/2C khu Ngoại Giao Đoàn, phố Kim Mã đường dưới",,21.030860,105.816663,,
hanoi_stop_7617390956,Đối diện nhà B6C - Khu đô thị Nam Trung Yên,,21.015048,105.789909,,
hanoi_stop_7617390957,C23-24 ô đất A10 - Khu đô thị Nam Trung Yên,,21.018627,105.787048,,
hanoi_stop_8838269685,Đối diện 16 Dương Đình Nghệ,,21.019662,105.784744,,
hanoi_stop_5485775798,Ga Lê Đức Thọ,,21.038201,105.773012,,
hanoi_stop_738813403,Trung tâm kiểm định xe máy quân sự (Cầu Diễn),,21.042487,105.759638,,
hanoi_stop_8901852870,Ga Phú Diễn,,21.044125,105.755216,,
hanoi_stop_8901852871,135 Tổ 3 - Đường 32,,21.045992,105.750452,,
hanoi_stop_8901852872,Ga Minh Khai,,21.048139,105.744878,,
hanoi_stop_8901852873,Đình và Miếu Đồng Cổ - Đường 32,,21.049642,105.741053,,
hanoi_stop_8361021995,Điểm trung chuyển Nhổn,,21.051558,105.737079,,
hanoi_stop_11518979148,Nhà Ga Nhổn (ĐH Công Nghiệp) - Đường Cầu Diễn,,21.052798,105.735270,,
hanoi_stop_8901852874,22 Phố Nhổn,,21.054905,105.732155,,
hanoi_stop_8901852875,Công ty CP xây dựng Thăng Long - Quốc lộ 32,,21.058098,105.727459,,
hanoi_stop_8901852876,Đại học Thành Đô - Quốc lộ 32,,21.062236,105.721356,,
hanoi_stop_8901852877,Đối diện Khu đô thị Kim Chung - Di Trạch,,21.065309,105.716341,,
hanoi_stop_8901852878,Qua lối rẽ HV Khoa học Quân Sự - Quốc lộ 32,,21.066838,105.713667,,
hanoi_stop_8901852879,Bưu điện Hoài Đức - Ngã tư Trôi,,21.069654,105.708498,,
hanoi_stop_8901852880,Trước KĐT Lideco 25m,,21.072594,105.708819,,
hanoi_stop_12098837661,Qua 30m đối diện cổng làng Hạnh Đàn,,21.077053,105.710120,,
hanoi_stop_738815384,Chùa Trấn Quốc,,21.047970,105.837727,,
hanoi_stop_481837146,Đối diện Đền Quán Thánh,,21.043496,105.835983,,
hanoi_stop_11294871987,Kim Mã (nhà chờ BRT Kim Mã) - Biển trước,,21.032089,105.829172,,
hanoi_stop_738815788,Đối diện Trường Đại học Lao động & Xã Hội - 48 Trần Duy Hưng,,21.012475,105.801378,,
hanoi_stop_11527164034,Đối diện Trường Trung học cơ sở Phú Đô,,21.012981,105.770783,,
hanoi_stop_8838269690,Bãi đỗ xe Sân vận động Mỹ Đình,,21.019516,105.767390,,
hanoi_stop_8840893877,Đường vào Trường Cao đẳng nghề Trần Hưng Đạo,,21.025156,105.767714,,
hanoi_stop_11527164036,320 Xuân Phương,,21.032140,105.739026,,
hanoi_stop_8741294707,Hồ Ngọc Khánh - Đối diện 37 Nguyễn Chí Thanh,,21.026979,105.811918,,
hanoi_stop_12122344236,Nhà văn hóa số 7 Xuân Phương - KĐT Vân Canh,,21.028046,105.738906,,
hanoi_stop_8903312065,Đại học Lao động & Xã hội - 43 Trần Duy Hưng,,21.012648,105.802101,,
hanoi_stop_8903312084,Đối diện tượng đài Bắc Sơn - Hoàng Diệu,,21.035438,105.839416,,
hanoi_stop_738813622,19 Nguyễn Biểu,,21.041927,105.840163,,
hanoi_stop_738813394,192A Quán Thánh,,21.042773,105.837974,,
hanoi_stop_8903312085,Qua ngã 3 Thanh Niên-Trấn Vũ 50m,,21.044490,105.836464,,
hanoi_stop_8903312086,Hồ Trúc Bạch - Đối diện 28C Thanh Niên,,21.048768,105.838637,,
hanoi_stop_11527354909,Chùa Ngọc Mạch,,21.030676,105.739756,,
hanoi_stop_8838269689,Đối diện đường vào Trường Cao đẳng nghề Trần Hưng Đạo,,21.025525,105.767119,,
hanoi_stop_11527354911,Sân vận động quốc gia Mỹ Đình,,21.019768,105.765867,,
hanoi_stop_11527354912,Trường Trung học cơ sở Phú Đô,,21.012914,105.770277,,
hanoi_stop_8856174813,35-35A Nguyễn Chí Thanh,,21.027320,105.812240,,
hanoi_stop_11524039230,Trường Trung học cơ sở Giảng Võ,,21.028531,105.821342,,
hanoi_stop_11519318248,95 Giảng Võ,,21.029059,105.826801,,
hanoi_stop_12122344237,Sân bóng Vân Canh - KĐT Vân Canh,,21.027958,105.739520,,
hanoi_stop_8911997210,Cách ngã 4 Trạm Trôi 250m,,21.072354,105.708609,,
hanoi_stop_8865385026,Bưu điện Hoài Đức - Ngã tư Trôi,,21.069421,105.708369,,
hanoi_stop_8911997211,Đối diện lối rẽ Học viện Khoa học Quân sự,,21.066407,105.713858,,
hanoi_stop_8911997212,Khu đô thị Kim Chung - Di Trạch,,21.064593,105.717154,,
hanoi_stop_8911997213,Đối diện Đại học Thành Đô,,21.061219,105.722433,,
hanoi_stop_8911997214,Qua đường vào TT Huấn luyện Thể thao Quốc Gia I - Quốc lộ 32,,21.057891,105.727286,,
hanoi_stop_8911997215,Hè giữa nhà số 55-57 phố Nhổn,,21.054502,105.732216,,
hanoi_stop_11518979149,Nhà Ga Nhổn (Đối diện ĐH Công Nghiệp) - Đường Cầu Diễn,,21.052501,105.735047,,
hanoi_stop_8911997216,Điểm trung chuyển Nhổn,,21.051258,105.736952,,
hanoi_stop_8912013117,Đối diện Đình và Miếu Đồng Cổ,,21.049653,105.740186,,
hanoi_stop_8912013118,Ga Minh Khai,,21.047875,105.744728,,
hanoi_stop_8912013119,150-152 tổ 3 đường 32 (đối diện Công ty Vật liệu & Bưu điện),,21.045260,105.751473,,
hanoi_stop_8912013120,Ga Phú Diễn,,21.043754,105.755206,,
hanoi_stop_738813630,Siêu thị Dos Mark,,21.042322,105.759090,,
hanoi_stop_7622858412,Gần ngã 3 Phạm Hùng - Đình Thôn (Hướng đi Khuất Duy Tiến) - cột trước,,21.023304,105.778479,,
hanoi_stop_8840893881,16 Dương Đình Nghệ,,21.019452,105.785010,,
hanoi_stop_7622885212,Qua trường Tiểu học Nam Trung Yên 100m,,21.018596,105.786898,,
hanoi_stop_7622885213,Nhà B6C - Khu đô thị Nam Trung Yên,,21.014785,105.789945,,
hanoi_stop_8757875251,106 Trần Đại Nghĩa,,20.997569,105.845828,,
hanoi_stop_738813427,95 Lê Thanh Nghị,,21.001740,105.843937,,
hanoi_stop_8919736465,Đối diện AEON Mall Long Biên,,21.025395,105.899826,,
hanoi_stop_8919736466,269 Thạch Bàn,,21.022100,105.904200,,
hanoi_stop_8919736471,Trước cột điện BKD12,,20.971522,105.916527,,
hanoi_stop_8919736472,Trước cột điện KL29,,20.971857,105.908896,,
hanoi_stop_8919736475,Trước đối diện Trạm bơm KL 10m,,20.966196,105.905974,,
hanoi_stop_8919736477,UBND xã Kim Lan,,20.963402,105.904625,,
hanoi_stop_8919736479,Trường Trung học cơ sở Kim Lan,,20.959334,105.904274,,
hanoi_stop_8919736482,Đối diện nhà vườn Kiên Huế,,20.955535,105.909814,,
hanoi_stop_8919736483,Đối diện Điếm canh đê Phụng Công,,20.954234,105.919313,,
hanoi_stop_8919736485,Đối diện nhà vườn Tuấn Tú thông đến xã Phụng Công,,20.947882,105.923728,,
hanoi_stop_8919736487,Hè trước Agribank Văn Giang,,20.946764,105.927361,,
hanoi_stop_8919736489,Trường Trung cấp Cảnh sát Nhân dân,,20.945729,105.932237,,
hanoi_stop_8919736491,Hè trước số nhà 263 thị trấn Văn Giang,,20.945549,105.937356,,
hanoi_stop_8919736493,Đối diện Trạm y tế huyện Văn Giang,,20.950989,105.944918,,
hanoi_stop_8919736495,Qua đường vào Miếu Nghè 30m,,20.955035,105.948697,,
hanoi_stop_8919736497,Đối diện qua trạm xăng dầu Cửu Cao,,20.956712,105.951157,,
hanoi_stop_8919736500,Trước Salon Đức Trung,,20.966642,105.955367,,
hanoi_stop_8919736501,Đối diện Trường Trung cấp Giao thông vận tải miền Bắc,,20.971784,105.957063,,
hanoi_stop_8919736503,Đối diện Bưu điện xã Kiêu Kỵ,,20.976456,105.958493,,
hanoi_stop_8919736505,Qua 50m Công ty TNHH MTV 76,,20.981236,105.959439,,
hanoi_stop_8919736506,Trường mầm non Sao Mai,,20.981671,105.959428,,
hanoi_stop_8919736504,Bưu điện Kiêu Kỵ,,20.976899,105.958400,,
hanoi_stop_8919736502,Qua Trường Trung cấp Giao thông vận tải miền Bắc 100m,,20.971725,105.956906,,
hanoi_stop_8919736499,Đối diện cửa hàng thép Bách Việt,,20.964883,105.954860,,
hanoi_stop_8919736498,Gần trạm xăng dầu xã Cửu Cao,,20.957317,105.951379,,
hanoi_stop_8919736496,Trước đối diện đường vào Miếu Nghè 100m,,20.954284,105.946804,,
hanoi_stop_8919736494,"HĐND, UBND huyện Văn Giang",,20.949802,105.944261,,
hanoi_stop_8919736492,Hè trước nhà 234 thị trấn Văn Giang,,20.945763,105.937850,,
hanoi_stop_8919736490,Đối diện Trường trung cấp Cảnh sát Nhân dân,,20.945918,105.932132,,
hanoi_stop_8919736488,Phòng Giáo dục đào tạo huyện Văn Giang,,20.946798,105.927623,,
hanoi_stop_8919736486,Trước Y học cổ truyền Đại hữu xã Phụng Công,,20.948192,105.923778,,
hanoi_stop_8919736484,Qua điếm canh đê Phụng Công 50m,,20.953883,105.919735,,
hanoi_stop_8919736481,Điện lạnh Quý Thơm,,20.955382,105.909668,,
hanoi_stop_8919736480,Trạm Y tế xã Kim Lan,,20.959101,105.904509,,
hanoi_stop_8919736478,Đối diện UBND xã Kim Lan,,20.963252,105.904877,,
hanoi_stop_8919736476,Qua trạm bơm Kim Lan 20m,,20.966454,105.906329,,
hanoi_stop_8919736473,Trước đối diện cột điện KL29,,20.971697,105.909250,,
hanoi_stop_8919736469,Trước đối diện cột điện BKD12,,20.971360,105.917700,,
hanoi_stop_8919736511,259-261 Thạch Bàn,,21.021785,105.903719,,
hanoi_stop_8919736512,AEON Mall Long Biên (đối diện cột điện T4A/2A-B đường Cổ Linh),,21.025659,105.899959,,
hanoi_stop_738814528,18 Lý Thường Kiệt,,21.021995,105.855276,,
hanoi_stop_3146565103,Đối diện 39 Lý Thường Kiệt,,21.023037,105.851743,,
hanoi_stop_8923111206,44 Lý Thường Kiệt,,21.023853,105.848879,,
